[{"name":"Batifa bank","name_ku":"Batifa bank","name_ar":"Batifa bank","location_name":"","type":"atm","governorate":"","city":"","region":"Zakho","latitude":37.17688,"longitude":43.01084,"maps_url":"https://www.google.com/maps?q=37.17688,43.01084","banks":[{"bank_ku":"ئار تی","bank_en":"RT","count":1,"sources":["own"]}]},{"name":"زاخۆ - بەرامبەر کۆچکا هونەری","name_ku":"زاخۆ - بەرامبەر کۆچکا هونەری","name_ar":"","location_name":"Technical Institute","type":"atm","governorate":"دهۆک","city":"Zakho","region":"","latitude":37.166566,"longitude":42.688999,"maps_url":"https://maps.app.goo.gl/rLFbvvgjFvfzXpux6","banks":[{"bank_ku":"ئار تی","bank_en":"RT","count":1,"sources":["krg","own"],"own_name":"Technical Institute"},{"bank_ku":"بانکی گەشەپێدانی عێراقی","bank_en":"International Development Bank","count":1,"sources":["krg"]}]},{"name":"TECHNICAL INSTITUTE ZAKHO,DUHOK","name_ku":"","name_ar":"","location_name":"","type":"atm","governorate":"","city":"","region":"DHOUK","latitude":37.1658538424087,"longitude":42.6928249854195,"maps_url":"https://www.google.com/maps?q=37.1658538424087,42.6928249854195","banks":[{"bank_ku":"بانکی گەشەپێدانی عێراقی","bank_en":"International Development Bank","count":1,"sources":["own"]}]},{"name":"زاخۆ - تەنيشت بانکي هيزل","name_ku":"زاخۆ - تەنيشت بانکي هيزل","name_ar":"","location_name":"Hizl","type":"atm","governorate":"دهۆک","city":"زاخۆ","region":"","latitude":37.161153,"longitude":42.679117,"maps_url":"https://maps.app.goo.gl/vXdZbdGa1baT9LFi6","banks":[{"bank_ku":"جیهان","bank_en":"Cihan","count":1,"sources":["krg","own"],"own_name":"Zakho - Near Hezel Bank"},{"bank_ku":"ئار تی","bank_en":"RT","count":1,"sources":["krg","own"],"own_name":"Hizl"}]},{"name":"","name_ku":"","name_ar":"","location_name":"Khabir 2","type":"atm","governorate":"دهۆک","city":"Zakho","region":"","latitude":37.16097,"longitude":42.71259,"maps_url":"https://www.google.com/maps?q=37.16097,42.71259","banks":[{"bank_ku":"ئێن بی ئای","bank_en":"NBI","count":1,"sources":["krg"]},{"bank_ku":"بانکی ئیسلامی عێراقی","bank_en":"Iraqi Islamic Bank","count":1,"sources":["krg"]}]},{"name":"زاخۆ - لسەر جادا گورستانا تلکەبەرێ","name_ku":"زاخۆ - لسەر جادا گورستانا تلکەبەرێ","name_ar":"","location_name":"Zakho Card Department","type":"atm","governorate":"دهۆک","city":"Zakho","region":"","latitude":37.157925,"longitude":42.722627,"maps_url":"https://maps.app.goo.gl/9BSNggwNqscL4Ze37","banks":[{"bank_ku":"ئار تی","bank_en":"RT","count":1,"sources":["krg","own"],"own_name":"Zakho Card Department"},{"bank_ku":"بانکی ئیسلامی عێراقی","bank_en":"Iraqi Islamic Bank","count":1,"sources":["krg","own"],"own_name":"صراف زاخو - دائرة بطاقة المعلومات كريز"}]},{"name":"زاخۆ - نزیک سایلویا زاخۆ","name_ku":"زاخۆ - نزیک سایلویا زاخۆ","name_ar":"","location_name":"Dalal Bank","type":"atm","governorate":"دهۆک","city":"زاخۆ","region":"","latitude":37.152445,"longitude":42.704929,"maps_url":"https://maps.app.goo.gl/oZLFxFxxuqFtSLEv8","banks":[{"bank_ku":"ئار تی","bank_en":"RT","count":1,"sources":["krg","own"],"own_name":"Dalal Bank"}]},{"name":"زاخۆ - نزیک پردی شەعبانکێ","name_ku":"زاخۆ - نزیک پردی شەعبانکێ","name_ar":"","location_name":"Zakho","type":"atm","governorate":"دهۆک","city":"زاخۆ","region":"","latitude":37.147803,"longitude":42.683914,"maps_url":"https://maps.app.goo.gl/UmHoofsNHFqGRq5H8","banks":[{"bank_ku":"جیهان","bank_en":"Cihan","count":2,"sources":["krg","own"],"own_name":"Zakho - Near Shabanki Bridge"},{"bank_ku":"ئێن بی ئای","bank_en":"NBI","count":1,"sources":["krg"]}]},{"name":"ATM - Zakho Blann Bazar","name_ku":"","name_ar":"","location_name":"","type":"atm","governorate":"","city":"","region":"","latitude":37.14751,"longitude":42.680511,"maps_url":"https://www.google.com/maps?q=37.147510,42.680511","banks":[{"bank_ku":"بانکی اربیل بۆ وەبەرهێنان و پێدان","bank_en":"Erbil Bank for Investments and Finance","count":1,"sources":["own"]}]},{"name":"","name_ku":"","name_ar":"","location_name":"Dalal 1","type":"atm","governorate":"دهۆک","city":"Zakho","region":"","latitude":37.14747,"longitude":42.7105,"maps_url":"https://www.google.com/maps?q=37.14747,42.7105","banks":[{"bank_ku":"ئێن بی ئای","bank_en":"NBI","count":1,"sources":["krg"]},{"bank_ku":"بانکی ئیسلامی عێراقی","bank_en":"Iraqi Islamic Bank","count":1,"sources":["krg"]}]},{"name":"زاخۆ - بەردەم نەخۆشخانا بێدارێ","name_ku":"زاخۆ - بەردەم نەخۆشخانا بێدارێ","name_ar":"","location_name":"Ibrahim Xelil Street","type":"atm","governorate":"دهۆک","city":"Zakho","region":"","latitude":37.146063,"longitude":42.645656,"maps_url":"https://maps.app.goo.gl/sVdbBuniKHR3tAos8","banks":[{"bank_ku":"ئێن بی ئای","bank_en":"NBI","count":1,"sources":["krg"]},{"bank_ku":"بانکی گەشەپێدانی عێراقی","bank_en":"International Development Bank","count":1,"sources":["krg"]}]},{"name":"Zakho Branch","name_ku":"","name_ar":"","location_name":"","type":"branch","governorate":"","city":"","region":"","latitude":37.144328115712035,"longitude":42.64493562829231,"maps_url":"https://www.google.com/maps?q=37.144328115712035,42.64493562829231","banks":[{"bank_ku":"ئێن بی ئای","bank_en":"NBI","count":1,"sources":["own"]}]},{"name":"زاخۆ - نزيک ياريگای زاخۆ","name_ku":"زاخۆ - نزيک ياريگای زاخۆ","name_ar":"","location_name":"Zakho Municipality","type":"atm","governorate":"دهۆک","city":"زاخۆ","region":"","latitude":37.144226,"longitude":42.673975,"maps_url":"https://www.google.com/maps?q=37.1442256503592,42.673974945843","banks":[{"bank_ku":"جیهان","bank_en":"Cihan","count":1,"sources":["krg","own"],"own_name":"Zakho - Near Zakho International Stadium"},{"bank_ku":"ئار تی","bank_en":"RT","count":3,"sources":["krg","own"],"own_name":"Zakho Municipality1"}]},{"name":"ATM - Zakho Branch","name_ku":"","name_ar":"","location_name":"","type":"atm","governorate":"","city":"","region":"","latitude":37.141373,"longitude":42.658406,"maps_url":"https://www.google.com/maps?q=37.141373,42.658406","banks":[{"bank_ku":"بانکی اربیل بۆ وەبەرهێنان و پێدان","bank_en":"Erbil Bank for Investments and Finance","count":1,"sources":["own"]}]},{"name":"Zakho - Zakho Branch - Bidar District - Ibrahim Khalil Street","name_ku":"زاخۆ- گەڕەکی بێدار - شەقامی ئیبراهیم خەلیل","name_ar":"زاخو - فرع زاخو - حي بيدار - شارع ابراهيم الخليل","location_name":"","type":"branch","governorate":"","city":"","region":"Duhok","latitude":37.141245,"longitude":42.663321,"maps_url":"https://www.google.com/maps?q=37.141245,42.663321","banks":[{"bank_ku":"جیهان","bank_en":"Cihan","count":3,"sources":["own"]}]},{"name":"branch","name_ku":"branch","name_ar":"branch","location_name":"","type":"atm","governorate":"","city":"","region":"Zakho","latitude":37.14123202,"longitude":42.66079059,"maps_url":"https://www.google.com/maps?q=37.14123202,42.66079059","banks":[{"bank_ku":"ئار تی","bank_en":"RT","count":1,"sources":["own"]}]},{"name":"Zakho Branch","name_ku":"","name_ar":"","location_name":"","type":"branch","governorate":"","city":"","region":"","latitude":37.141185,"longitude":42.658428,"maps_url":"https://www.google.com/maps?q=37.141185,42.658428","banks":[{"bank_ku":"بانکی اربیل بۆ وەبەرهێنان و پێدان","bank_en":"Erbil Bank for Investments and Finance","count":1,"sources":["own"]}]},{"name":"Zakho Branch","name_ku":"لقی زاخۆ","name_ar":"فرع زاخو","location_name":"","type":"branch","governorate":"","city":"","region":"Zakho","latitude":37.141,"longitude":42.711,"maps_url":"https://www.google.com/maps?q=37.141,42.711","banks":[{"bank_ku":"ئار تی","bank_en":"RT","count":1,"sources":["own"]}]},{"name":"Ibrahim Khalil","name_ku":"Ibrahim Khalil","name_ar":"Ibrahim Khalil","location_name":"","type":"atm","governorate":"","city":"","region":"Zakho","latitude":37.14061535,"longitude":42.57083351,"maps_url":"https://www.google.com/maps?q=37.14061535,42.57083351","banks":[{"bank_ku":"ئار تی","bank_en":"RT","count":1,"sources":["own"]}]},{"name":"IBRAHIM XELIL STREET,DUHOK","name_ku":"","name_ar":"","location_name":"","type":"atm","governorate":"","city":"","region":"DHOUK","latitude":37.1404511413599,"longitude":42.6672850545543,"maps_url":"https://www.google.com/maps?q=37.1404511413599,42.6672850545543","banks":[{"bank_ku":"بانکی گەشەپێدانی عێراقی","bank_en":"International Development Bank","count":1,"sources":["own"]}]},{"name":"زاخۆ - تەنیشت ڕێڤەبەرییا ئاسایشا زاخۆ","name_ku":"زاخۆ - تەنیشت ڕێڤەبەرییا ئاسایشا زاخۆ","name_ar":"","location_name":"Zagros","type":"atm","governorate":"دهۆک","city":"Zakho","region":"","latitude":37.139109,"longitude":42.710782,"maps_url":"https://maps.app.goo.gl/TMx7sfRrdHGRX2Nw5","banks":[{"bank_ku":"ئار تی","bank_en":"RT","count":1,"sources":["krg","own"],"own_name":"Zagros"},{"bank_ku":"بانکی ئیسلامی عێراقی","bank_en":"Iraqi Islamic Bank","count":1,"sources":["krg","own"],"own_name":"صراف زاخو الجديدة"},{"bank_ku":"بانکی گەشەپێدانی عێراقی","bank_en":"International Development Bank","count":1,"sources":["krg","own"],"own_name":"ZAKHO ST,DUHOK"}]},{"name":"زاخو المصرف العراقي الاسلامي مكتب زاخو","name_ku":"","name_ar":"","location_name":"","type":"atm","governorate":"","city":"","region":"","latitude":37.138409,"longitude":42.695371,"maps_url":"https://www.google.com/maps?q=37.138409,42.695371","banks":[{"bank_ku":"بانکی ئیسلامی عێراقی","bank_en":"Iraqi Islamic Bank","count":1,"sources":["own"]}]},{"name":"زاخۆ - بەردەم ناحیا رزگاری","name_ku":"زاخۆ - بەردەم ناحیا رزگاری","name_ar":"","location_name":"Rizgary Bank","type":"atm","governorate":"دهۆک","city":"زاخۆ","region":"","latitude":37.137985,"longitude":42.562266,"maps_url":"https://maps.app.goo.gl/g6RhiheiEsd1Wr3bA","banks":[{"bank_ku":"ئار تی","bank_en":"RT","count":2,"sources":["krg","own"],"own_name":"Rizgary bank1"}]},{"name":"SILAV BAZAR AL AMADIYA,DOHUK","name_ku":"","name_ar":"","location_name":"","type":"atm","governorate":"","city":"","region":"DHOUK","latitude":37.0935304608789,"longitude":43.48926552468,"maps_url":"https://www.google.com/maps?q=37.0935304608789,43.48926552468","banks":[{"bank_ku":"بانکی گەشەپێدانی عێراقی","bank_en":"International Development Bank","count":1,"sources":["own"]}]},{"name":"ئامێدی - بەردەم قائیمقامیا ئامێدی","name_ku":"ئامێدی - بەردەم قائیمقامیا ئامێدی","name_ar":"","location_name":"Amedi Health Directorate","type":"atm","governorate":"دهۆک","city":"ئامێدی","region":"","latitude":37.090447,"longitude":43.48872,"maps_url":"https://maps.app.goo.gl/HPDVm114UrzXkotU9","banks":[{"bank_ku":"ئار تی","bank_en":"RT","count":2,"sources":["krg","own"],"own_name":"Amedi Health Directorate1"}]},{"name":"ئامێدی - نیزیک ڕێڤەبەرییا ئاسایشا ئامێدی","name_ku":"ئامێدی - نیزیک ڕێڤەبەرییا ئاسایشا ئامێدی","name_ar":"","location_name":"Solav School","type":"atm","governorate":"دهۆک","city":"Amedi","region":"","latitude":37.089684,"longitude":43.487734,"maps_url":"https://maps.app.goo.gl/N4hdEjKPBhxsAJuT7","banks":[{"bank_ku":"بانکی بەغداد","bank_en":"Bank of Baghdad","count":1,"sources":["krg"]}]},{"name":"ئامێدی - بەردەم سولاڤ بانک","name_ku":"ئامێدی - بەردەم سولاڤ بانک","name_ar":"","location_name":"Silav Bazar","type":"atm","governorate":"دهۆک","city":"Amedi","region":"","latitude":37.088391,"longitude":43.487396,"maps_url":"https://maps.app.goo.gl/eZcM9ngJxUZQ6QbH6","banks":[{"bank_ku":"ئێن بی ئای","bank_en":"NBI","count":1,"sources":["krg"]},{"bank_ku":"بانکی گەشەپێدانی عێراقی","bank_en":"International Development Bank","count":1,"sources":["krg"]}]},{"name":"Duhok Office (Dry Port)","name_ku":"نووسینگەی دهۆک (بەندەری وشک)","name_ar":"مكتب دهوك (ميناء الجاف)","location_name":"","type":"branch","governorate":"","city":"","region":"Dohuk","latitude":37.05,"longitude":43.1,"maps_url":"https://www.google.com/maps?q=37.05,43.1","banks":[{"bank_ku":"ئار تی","bank_en":"RT","count":1,"sources":["own"]}]},{"name":"سەرسنگ - بەردەم باژێرڤانییا سەرسنگێ","name_ku":"سەرسنگ - بەردەم باژێرڤانییا سەرسنگێ","name_ar":"","location_name":"Sarsang Bank (Sabna) 1","type":"atm","governorate":"دهۆک","city":"Sarsing","region":"","latitude":37.04498,"longitude":43.34035,"maps_url":"https://www.google.com/maps?q=37.04498,43.34035","banks":[{"bank_ku":"ئێن بی ئای","bank_en":"NBI","count":1,"sources":["krg"]},{"bank_ku":"بانکی ئیسلامی عێراقی","bank_en":"Iraqi Islamic Bank","count":1,"sources":["krg"]}]},{"name":"سەرسنک - بەردەم ڕێڤەبەریا ناحیا سەرسنک","name_ku":"سەرسنک - بەردەم ڕێڤەبەریا ناحیا سەرسنک","name_ar":"","location_name":"sbna","type":"atm","governorate":"دهۆک","city":"سەرسنک","region":"","latitude":37.043186,"longitude":43.353029,"maps_url":"https://maps.app.goo.gl/MwzHfjAXRiXf1UYG6","banks":[{"bank_ku":"ئار تی","bank_en":"RT","count":1,"sources":["krg","own"],"own_name":"Sbna"}]},{"name":"دهۆک - شێلادزێ","name_ku":"دهۆک - شێلادزێ","name_ar":"","location_name":"Sheladze Bank","type":"atm","governorate":"دهۆک","city":"شێلادزێ","region":"","latitude":37.03203,"longitude":43.773083,"maps_url":"https://maps.app.goo.gl/DuULrEnhzbefSdbG9","banks":[{"bank_ku":"ئار تی","bank_en":"RT","count":2,"sources":["krg","own"],"own_name":"Sheladze1"}]},{"name":"","name_ku":"","name_ar":"","location_name":"Sheladze 1","type":"atm","governorate":"دهۆک","city":"Sheladze","region":"","latitude":37.02621,"longitude":43.80016,"maps_url":"https://www.google.com/maps?q=37.02621,43.80016","banks":[{"bank_ku":"ئێن بی ئای","bank_en":"NBI","count":1,"sources":["krg"]},{"bank_ku":"بانکی ئیسلامی عێراقی","bank_en":"Iraqi Islamic Bank","count":1,"sources":["krg"]}]},{"name":"Duhok Branch","name_ku":"لقی دهۆک","name_ar":"فرع دهوك","location_name":"","type":"branch","governorate":"","city":"","region":"Dohuk","latitude":37.013,"longitude":43.089,"maps_url":"https://www.google.com/maps?q=37.013,43.089","banks":[{"bank_ku":"ئار تی","bank_en":"RT","count":1,"sources":["own"]}]},{"name":"دهۆک - زاویتە.","name_ku":"دهۆک - زاویتە.","name_ar":"","location_name":"Duhok Kora l Remote","type":"atm","governorate":"دهۆک","city":"زاویتە","region":"","latitude":36.904595,"longitude":43.134903,"maps_url":"https://maps.app.goo.gl/7FbLSJTLVh44RMuH9","banks":[{"bank_ku":"ئار تی","bank_en":"RT","count":1,"sources":["krg","own"],"own_name":"Zawita sub-district directorate"}]},{"name":"Cihan University - Hoshki District","name_ku":"زانکۆی جیهان- گەڕەکی حەوشەکی","name_ar":"جامعة جيهان - حي حوشكي","location_name":"","type":"atm","governorate":"","city":"","region":"Duhok","latitude":36.8779,"longitude":42.88587,"maps_url":"https://www.google.com/maps?q=36.8779,42.88587","banks":[{"bank_ku":"جیهان","bank_en":"Cihan","count":1,"sources":["own"]}]},{"name":"صراف دهوك - ماتين (MATIN 263)","name_ku":"","name_ar":"","location_name":"","type":"atm","governorate":"","city":"","region":"","latitude":36.87592,"longitude":42.93548,"maps_url":"https://www.google.com/maps?q=36.875920,42.935480","banks":[{"bank_ku":"بانکی ئیسلامی عێراقی","bank_en":"Iraqi Islamic Bank","count":1,"sources":["own"]}]},{"name":"دهۆک - سەر مزگەفتا سەباح ئەترۆشی دا","name_ku":"دهۆک - سەر مزگەفتا سەباح ئەترۆشی دا","name_ar":"","location_name":"Niniveh Health Directorate","type":"atm","governorate":"دهۆک","city":"دهۆک","region":"","latitude":36.873244,"longitude":42.931431,"maps_url":"https://maps.app.goo.gl/G8tZegAA7yMWrNw9A","banks":[{"bank_ku":"بانکی ئیسلامی عێراقی","bank_en":"Iraqi Islamic Bank","count":1,"sources":["krg","own"],"own_name":"صراف دهوك - شارع الزرقاء"},{"bank_ku":"بانکی گەشەپێدانی عێراقی","bank_en":"International Development Bank","count":1,"sources":["krg","own"],"own_name":"NINIVEH HEALTH DIRECTORATE,DOHUK"}]},{"name":"دهۆک - تەنيشت مزگەفتي حەجي ئيبراهيم","name_ku":"دهۆک - تەنيشت مزگەفتي حەجي ئيبراهيم","name_ar":"","location_name":"Matin","type":"atm","governorate":"دهۆک","city":"دهۆک","region":"","latitude":36.868369,"longitude":42.949136,"maps_url":"https://www.google.com/maps?q=36.8683694354393,42.949135820337","banks":[{"bank_ku":"جیهان","bank_en":"Cihan","count":1,"sources":["krg","own"],"own_name":"Near Haji Ibrahim Mosque"},{"bank_ku":"ئار تی","bank_en":"RT","count":2,"sources":["krg","own"],"own_name":"MALTA1"},{"bank_ku":"ئێن بی ئای","bank_en":"NBI","count":1,"sources":["krg"]}]},{"name":"Dohuk Branch","name_ku":"","name_ar":"","location_name":"","type":"atm","governorate":"","city":"","region":"","latitude":36.8681757,"longitude":42.9782635,"maps_url":"https://www.google.com/maps?q=36.8681757,42.9782635","banks":[{"bank_ku":"بانکی بەغداد","bank_en":"Bank of Baghdad","count":1,"sources":["own"]}]},{"name":"بلی- شەقامی بلێ -دینارتە، بەردەم  فەرمانگەی ئاوی بارزان","name_ku":"بلی- شەقامی بلێ -دینارتە، بەردەم  فەرمانگەی ئاوی بارزان","name_ar":"","location_name":"Ble HUB","type":"atm","governorate":"هەولێر","city":"بلێ","region":"","latitude":36.868163,"longitude":44.061739,"maps_url":"https://maps.app.goo.gl/srfiaJM8DPRbBfXAA","banks":[{"bank_ku":"جیهان","bank_en":"Cihan","count":1,"sources":["krg","own"],"own_name":"Barzan Subdistrict - Ble Road - Opposite Barzan Water Office"},{"bank_ku":"ئار تی","bank_en":"RT","count":1,"sources":["krg","own"],"own_name":"KurdNeft"}]},{"name":"دهۆک - KRO بەرامبەر Maximall","name_ku":"دهۆک - KRO بەرامبەر Maximall","name_ar":"","location_name":"Azadi Street","type":"atm","governorate":"دهۆک","city":"دهۆک","region":"","latitude":36.867816,"longitude":42.969997,"maps_url":"https://maps.app.goo.gl/PXuvDsUnEVfCtBYEA","banks":[{"bank_ku":"ئار تی","bank_en":"RT","count":1,"sources":["krg","own"],"own_name":"Azadi Street"},{"bank_ku":"ئێن بی ئای","bank_en":"NBI","count":1,"sources":["krg"]},{"bank_ku":"بانکی عێراقی بۆ بازرگانی","bank_en":"TBI","count":1,"sources":["krg"]}]},{"name":"Dahouk Branch","name_ku":"","name_ar":"","location_name":"","type":"branch","governorate":"","city":"","region":"","latitude":36.867748,"longitude":42.977687,"maps_url":"https://www.google.com/maps?q=36.867748,42.977687","banks":[{"bank_ku":"بانکی بەغداد","bank_en":"Bank of Baghdad","count":1,"sources":["own"]}]},{"name":"FAHEEL HOTEL","name_ku":"","name_ar":"","location_name":"","type":"atm","governorate":"","city":"","region":"DHOUK","latitude":36.86764988883314,"longitude":42.9651099626433,"maps_url":"https://www.google.com/maps?q=36.86764988883314,42.9651099626433","banks":[{"bank_ku":"بانکی گەشەپێدانی عێراقی","bank_en":"International Development Bank","count":1,"sources":["own"]}]},{"name":"ATM-DUHOK-Duhok Mall","name_ku":"","name_ar":"","location_name":"","type":"atm","governorate":"","city":"","region":"","latitude":36.8668957,"longitude":42.9569312,"maps_url":"https://www.google.com/maps?q=36.8668957,42.9569312","banks":[{"bank_ku":"بانکی عێراقی بۆ بازرگانی","bank_en":"TBI","count":1,"sources":["own"]}]},{"name":"DUHOK MALL","name_ku":"","name_ar":"","location_name":"","type":"atm","governorate":"","city":"","region":"DHOUK","latitude":36.866584,"longitude":42.957123,"maps_url":"https://www.google.com/maps?q=36.866584,42.957123","banks":[{"bank_ku":"بانکی گەشەپێدانی عێراقی","bank_en":"International Development Bank","count":1,"sources":["own"]}]},{"name":"Duhok Mall - KRO Street - Opposite MEDIA SARAY Restaurant or Beside Turkish Consulate","name_ku":"شەقامی KRO - بەرامبەر چێشتخانەی MEDIA SARAY یان تەنیشت کونسوڵخانەی تورکی - دهۆک مۆڵ","name_ar":"دهوك مول- شارع KRO - امام مطعم MEDIA SARAY او جنب القنصلية التركية","location_name":"","type":"atm","governorate":"","city":"","region":"Duhok","latitude":36.866372,"longitude":42.957391,"maps_url":"https://www.google.com/maps?q=36.866372,42.957391","banks":[{"bank_ku":"جیهان","bank_en":"Cihan","count":1,"sources":["own"]}]},{"name":"Dhuk mall","name_ku":"","name_ar":"","location_name":"","type":"atm","governorate":"","city":"","region":"","latitude":36.8662865,"longitude":42.9574127,"maps_url":"https://www.google.com/maps?q=36.8662865,42.9574127","banks":[{"bank_ku":"بانکی بەغداد","bank_en":"Bank of Baghdad","count":1,"sources":["own"]}]},{"name":"Iraq - Duhok - Semel District - Social Welfare Street","name_ku":"قەزای سێمێل - شەقامی ریعایە","name_ar":"قضاء سيميل - شارع الرعاية","location_name":"","type":"atm","governorate":"","city":"","region":"Duhok","latitude":36.866139,"longitude":42.834808,"maps_url":"https://www.google.com/maps?q=36.866139,42.834808","banks":[{"bank_ku":"جیهان","bank_en":"Cihan","count":1,"sources":["own"]}]},{"name":"ATM - Duhok Mall","name_ku":"","name_ar":"","location_name":"","type":"atm","governorate":"","city":"","region":"","latitude":36.866094496439544,"longitude":42.95742236859315,"maps_url":"https://www.google.com/maps?q=36.866094496439544,42.95742236859315","banks":[{"bank_ku":"بانکی اربیل بۆ وەبەرهێنان و پێدان","bank_en":"Erbil Bank for Investments and Finance","count":1,"sources":["own"]}]},{"name":"دهۆک - بەردەم حدیقە دهۆک مۆڵ","name_ku":"دهۆک - بەردەم حدیقە دهۆک مۆڵ","name_ar":"","location_name":"Milan Stadium","type":"atm","governorate":"دهۆک","city":"Duhok","region":"","latitude":36.865927,"longitude":42.958589,"maps_url":"https://maps.app.goo.gl/mpRM2SLwuwVY7YN38","banks":[{"bank_ku":"بانکی عێراقی بۆ بازرگانی","bank_en":"TBI","count":2,"sources":["krg"]}]},{"name":"Iraq - Duhok - Opposite Shilan Hospital","name_ku":"بەرامبەر نەخۆشخانەی شیلان","name_ar":"مقابل مستشفى شيلان","location_name":"","type":"atm","governorate":"","city":"","region":"Duhok","latitude":36.865482,"longitude":42.97576,"maps_url":"https://www.google.com/maps?q=36.865482,42.97576","banks":[{"bank_ku":"جیهان","bank_en":"Cihan","count":1,"sources":["own"]}]},{"name":"دهۆک - نزیک بەڕێوەبەرایەتی کارەبای دهۆک, بەردەم داسنیا بانک","name_ku":"دهۆک - نزیک بەڕێوەبەرایەتی کارەبای دهۆک, بەردەم داسنیا بانک","name_ar":"","location_name":"Dasniya Bank","type":"atm","governorate":"دهۆک","city":"دهۆک","region":"","latitude":36.864684,"longitude":42.988189,"maps_url":"https://maps.app.goo.gl/Fz5RgXXVb7sioZMi9","banks":[{"bank_ku":"ئار تی","bank_en":"RT","count":3,"sources":["krg","own"],"own_name":"DASNIA1"},{"bank_ku":"ئێن بی ئای","bank_en":"NBI","count":1,"sources":["krg"]}]},{"name":"دهۆک - بەردەم پارکي گەلي","name_ku":"دهۆک - بەردەم پارکي گەلي","name_ar":"","location_name":"Matin Bank","type":"atm","governorate":"دهۆک","city":"دهۆک","region":"","latitude":36.864641,"longitude":43.003999,"maps_url":"https://www.google.com/maps?q=36.8646405913949,43.0039988120245","banks":[{"bank_ku":"جیهان","bank_en":"Cihan","count":1,"sources":["krg","own"],"own_name":"Near Gali Mosque"},{"bank_ku":"ئار تی","bank_en":"RT","count":2,"sources":["krg","own"],"own_name":"MATIN1"},{"bank_ku":"ئێن بی ئای","bank_en":"NBI","count":1,"sources":["krg"]}]},{"name":"بلێ - قوتابخانەی هاوڕێی بنەڕەتی بلێ","name_ku":"بلێ - قوتابخانەی هاوڕێی بنەڕەتی بلێ","name_ar":"","location_name":"Ble 1","type":"atm","governorate":"هەولێر","city":"Ble","region":"","latitude":36.86397,"longitude":44.06557,"maps_url":"https://www.google.com/maps?q=36.86397,44.06557","banks":[{"bank_ku":"ئێن بی ئای","bank_en":"NBI","count":1,"sources":["krg"]},{"bank_ku":"بانکی ئیسلامی عێراقی","bank_en":"Iraqi Islamic Bank","count":1,"sources":["krg"]}]},{"name":"دهۆک - نزیکێ تەلەفزيۆني کوردستان","name_ku":"دهۆک - نزیکێ تەلەفزيۆني کوردستان","name_ar":"","location_name":"Duhok | College of Humanity","type":"atm","governorate":"دهۆک","city":"دهۆک","region":"","latitude":36.863885,"longitude":42.930251,"maps_url":"https://www.google.com/maps?q=36.8638854212886,42.9302513252347","banks":[{"bank_ku":"جیهان","bank_en":"Cihan","count":1,"sources":["krg","own"],"own_name":"Near Kurdistan Television (KTV)"},{"bank_ku":"ئار تی","bank_en":"RT","count":2,"sources":["krg","own"],"own_name":"college of humanity 1"},{"bank_ku":"ئێن بی ئای","bank_en":"NBI","count":1,"sources":["krg"]}]},{"name":"دهۆک - بەرامبەر سەرۆکاتیا زانکۆیا دهۆک","name_ku":"دهۆک - بەرامبەر سەرۆکاتیا زانکۆیا دهۆک","name_ar":"","location_name":"Cihan Bank - Br. Duhok","type":"atm","governorate":"دهۆک","city":"Duhok","region":"","latitude":36.86314573,"longitude":42.98807257,"maps_url":"https://www.google.com/maps?q=36.8631457302389,42.9880725711645","banks":[{"bank_ku":"جیهان","bank_en":"Cihan","count":3,"sources":["krg","own"],"own_name":"Near Maternity Hospital"},{"bank_ku":"ئار تی","bank_en":"RT","count":1,"sources":["krg","own"],"own_name":"Cihan Bank - Br. Duhok"},{"bank_ku":"ئێن بی ئای","bank_en":"NBI","count":1,"sources":["krg"]}]},{"name":"11 AYLOOL ST. / Branch","name_ku":"لقی دهۆک شەقامی 11ی ئەیلول","name_ar":"فرع دهوك شارع 11 أيلول","location_name":"","type":"atm","governorate":"","city":"","region":"Dohuk","latitude":36.86290982,"longitude":42.98943025,"maps_url":"https://www.google.com/maps?q=36.86290982,42.98943025","banks":[{"bank_ku":"ئار تی","bank_en":"RT","count":1,"sources":["own"]}]},{"name":"فرع دهوك","name_ku":"","name_ar":"","location_name":"","type":"branch","governorate":"","city":"","region":"","latitude":36.86269315464476,"longitude":42.97643434946656,"maps_url":"https://www.google.com/maps?q=36.86269315464476,42.97643434946656","banks":[{"bank_ku":"بانکی ئیسلامی عێراقی","bank_en":"Iraqi Islamic Bank","count":1,"sources":["own"]}]},{"name":"صراف دهوك - سميل","name_ku":"","name_ar":"","location_name":"","type":"atm","governorate":"","city":"","region":"","latitude":36.86263,"longitude":42.83603,"maps_url":"https://www.google.com/maps?q=36.86263,42.83603","banks":[{"bank_ku":"بانکی ئیسلامی عێراقی","bank_en":"Iraqi Islamic Bank","count":1,"sources":["own"]}]},{"name":"صراف دهوك - شارع الأشتي","name_ku":"","name_ar":"","location_name":"","type":"atm","governorate":"","city":"","region":"","latitude":36.86228,"longitude":42.97651,"maps_url":"https://www.google.com/maps?q=36.86228,42.97651","banks":[{"bank_ku":"بانکی ئیسلامی عێراقی","bank_en":"Iraqi Islamic Bank","count":1,"sources":["own"]}]},{"name":"دهۆک - شەقامي ئەنوەر ماي","name_ku":"دهۆک - شەقامي ئەنوەر ماي","name_ar":"","location_name":"Presidency of Duhok University","type":"atm","governorate":"دهۆک","city":"دهۆک","region":"","latitude":36.861303,"longitude":42.969789,"maps_url":"https://www.google.com/maps?q=36.8613034906273,42.969788878506","banks":[{"bank_ku":"جیهان","bank_en":"Cihan","count":1,"sources":["krg","own"],"own_name":"Anwar Mai Street"},{"bank_ku":"ئار تی","bank_en":"RT","count":1,"sources":["krg","own"],"own_name":"The presidency of the University of Dohuk"},{"bank_ku":"ئێن بی ئای","bank_en":"NBI","count":1,"sources":["krg"]},{"bank_ku":"بانکی بەغداد","bank_en":"Bank of Baghdad","count":1,"sources":["krg"]}]},{"name":"دهۆک - سيميل، ناوەندی بازار","name_ku":"دهۆک - سيميل، ناوەندی بازار","name_ar":"","location_name":"Semel Bank","type":"atm","governorate":"دهۆک","city":"سێمێل","region":"","latitude":36.86008,"longitude":42.843467,"maps_url":"https://maps.app.goo.gl/y5JC7PiN6BqoJbCW8","banks":[{"bank_ku":"ئار تی","bank_en":"RT","count":1,"sources":["krg","own"],"own_name":"Semel"},{"bank_ku":"ئێن بی ئای","bank_en":"NBI","count":1,"sources":["krg"]}]},{"name":"دهۆک، سێمێل - تەنشت بەرێوەبەرايەتی پەروەردەي سمێل","name_ku":"دهۆک، سێمێل - تەنشت بەرێوەبەرايەتی پەروەردەي سمێل","name_ar":"","location_name":"Semel General Hospital","type":"atm","governorate":"دهۆک","city":"سێمێل","region":"","latitude":36.859988,"longitude":42.836089,"maps_url":"https://www.google.com/maps?q=36.8599880420922,42.8360888542495","banks":[{"bank_ku":"جیهان","bank_en":"Cihan","count":1,"sources":["krg","own"],"own_name":"Semel - Beside Semel Directorate of Education"},{"bank_ku":"ئار تی","bank_en":"RT","count":1,"sources":["krg","own"],"own_name":"Semel General Hospital"},{"bank_ku":"بانکی ئیسلامی عێراقی","bank_en":"Iraqi Islamic Bank","count":1,"sources":["krg"]}]},{"name":"Nawroz University","name_ku":"زانكۆی نوروز","name_ar":"جامعة نوروز","location_name":"","type":"atm","governorate":"","city":"","region":"Dohuk","latitude":36.85997643,"longitude":42.89556384,"maps_url":"https://www.google.com/maps?q=36.85997643,42.89556384","banks":[{"bank_ku":"ئار تی","bank_en":"RT","count":1,"sources":["own"]}]},{"name":"Duhok Branch - Zakho Road - Opposite Mazi Market, Near Dilshad Palace Hotel","name_ku":"لقی دهۆک - رێگای زاخۆ - تەنیشت دڵشاد پاڵاس","name_ar":"فرع دهوك - طريق زاخو مقابل مازي ماركيت، بالقرب من فندق دلشاد بالاس","location_name":"","type":"branch","governorate":"","city":"","region":"Duhok","latitude":36.859218,"longitude":42.978259,"maps_url":"https://www.google.com/maps?q=36.859218,42.978259","banks":[{"bank_ku":"جیهان","bank_en":"Cihan","count":1,"sources":["own"]}]},{"name":"ATM-DUHOK-DDK Hotel","name_ku":"","name_ar":"","location_name":"","type":"atm","governorate":"","city":"","region":"","latitude":36.8591844,"longitude":42.9629783,"maps_url":"https://www.google.com/maps?q=36.8591844,42.9629783","banks":[{"bank_ku":"بانکی عێراقی بۆ بازرگانی","bank_en":"TBI","count":1,"sources":["own"]}]},{"name":"دهۆک - نێزیک نەخوشخانا تەنگاڤیان یا کەڤن","name_ku":"دهۆک - نێزیک نەخوشخانا تەنگاڤیان یا کەڤن","name_ar":"","location_name":"Emergency Teaching Hospital","type":"atm","governorate":"دهۆک","city":"دهۆک","region":"","latitude":36.857704,"longitude":43.008523,"maps_url":"https://maps.app.goo.gl/KJEVABznLHqR4N1x6","banks":[{"bank_ku":"ئار تی","bank_en":"RT","count":1,"sources":["krg","own"],"own_name":"Khabat Health Center"},{"bank_ku":"ئێن بی ئای","bank_en":"NBI","count":1,"sources":["krg"]},{"bank_ku":"بانکی بەغداد","bank_en":"Bank of Baghdad","count":1,"sources":["krg"]}]},{"name":"Dohuk Office","name_ku":"","name_ar":"","location_name":"","type":"branch","governorate":"","city":"","region":"","latitude":36.856674,"longitude":43.009808,"maps_url":"https://www.google.com/maps?q=36.856674,43.009808","banks":[{"bank_ku":"بانکی بەغداد","bank_en":"Bank of Baghdad","count":1,"sources":["own"]}]},{"name":"دهۆک - بەرامبەر هۆتیل سەرگلی","name_ku":"دهۆک - بەرامبەر هۆتیل سەرگلی","name_ar":"","location_name":"Malta","type":"atm","governorate":"دهۆک","city":"دهۆک","region":"","latitude":36.856115,"longitude":42.960751,"maps_url":"https://maps.app.goo.gl/zQ6x5HLqy9LTK5dF6?g_st=ic","banks":[{"bank_ku":"ئار تی","bank_en":"RT","count":2,"sources":["krg","own"],"own_name":"GARA1"},{"bank_ku":"بانکی بەغداد","bank_en":"Bank of Baghdad","count":1,"sources":["krg"]}]},{"name":"Duhok Branch","name_ku":"","name_ar":"","location_name":"","type":"atm","governorate":"","city":"","region":"","latitude":36.85564226445747,"longitude":42.975720710814485,"maps_url":"https://www.google.com/maps?q=36.85564226445747,42.975720710814485","banks":[{"bank_ku":"ئێن بی ئای","bank_en":"NBI","count":1,"sources":["own"]}]},{"name":"Family Mall - Barza Street (Highway) - Duhok to Semel Road - Opposite Afro City or Duhok Terminal","name_ku":"شەقامی بارزا (هێڵی خێرا) - رێگای (دهوك - سیمێل) - بەرامبەر ئەڤرۆ سیتی یان تێرمیناڵی دهوك - باڵەخانەی فامیلی مۆڵ","name_ar":"فاملي مول- شارع بارزا (خط السريع) - طريق دهوك الى سيميل - امام افرو ستي او تيرمينال دهوك","location_name":"","type":"atm","governorate":"","city":"","region":"Duhok","latitude":36.853394,"longitude":42.885371,"maps_url":"https://www.google.com/maps?q=36.853394,42.885371","banks":[{"bank_ku":"جیهان","bank_en":"Cihan","count":1,"sources":["own"]}]},{"name":"Carrefour family mall -Dohuk","name_ku":"","name_ar":"","location_name":"","type":"atm","governorate":"","city":"","region":"","latitude":36.8532258,"longitude":42.8853915,"maps_url":"https://www.google.com/maps?q=36.8532258,42.8853915","banks":[{"bank_ku":"بانکی بەغداد","bank_en":"Bank of Baghdad","count":1,"sources":["own"]}]},{"name":"ATM-DUHOK-Family Mall","name_ku":"","name_ar":"","location_name":"","type":"atm","governorate":"","city":"","region":"","latitude":36.8531705,"longitude":42.8856992,"maps_url":"https://www.google.com/maps?q=36.8531705,42.8856992","banks":[{"bank_ku":"بانکی عێراقی بۆ بازرگانی","bank_en":"TBI","count":1,"sources":["own"]}]},{"name":"دهۆک - بەرامبەر تەربیا گشتی","name_ku":"دهۆک - بەرامبەر تەربیا گشتی","name_ar":"","location_name":"Silav Road","type":"atm","governorate":"دهۆک","city":"دهۆک","region":"","latitude":36.852925,"longitude":43.00155,"maps_url":"https://maps.app.goo.gl/jVauzzZKcXWuJ2BGA","banks":[{"bank_ku":"بانکی عێراقی بۆ بازرگانی","bank_en":"TBI","count":1,"sources":["krg"]},{"bank_ku":"بانکی بەغداد","bank_en":"Bank of Baghdad","count":1,"sources":["krg"]}]},{"name":"DOHUK MALL / QAZI MOHAMMED ST.","name_ku":"دهۆک مول","name_ar":"دهوك مول","location_name":"","type":"atm","governorate":"","city":"","region":"Dohuk","latitude":36.85228062,"longitude":42.88443026,"maps_url":"https://www.google.com/maps?q=36.85228062,42.88443026","banks":[{"bank_ku":"ئار تی","bank_en":"RT","count":1,"sources":["own"]}]},{"name":"FAMILY MALL  / DOHUK - SEMEL ROAD","name_ku":"فاملي مول دهوك","name_ar":"فاملي مول دهوك","location_name":"","type":"atm","governorate":"","city":"","region":"Dohuk","latitude":36.85227111,"longitude":42.88451487,"maps_url":"https://www.google.com/maps?q=36.85227111,42.88451487","banks":[{"bank_ku":"ئار تی","bank_en":"RT","count":1,"sources":["own"]}]},{"name":"دهۆک - بەرامبەر پەیمانگەی تەکنيکێ دهۆک","name_ku":"دهۆک - بەرامبەر پەیمانگەی تەکنيکێ دهۆک","name_ar":"","location_name":"Zanko Duhok","type":"atm","governorate":"دهۆک","city":"دهۆک","region":"","latitude":36.85223,"longitude":42.922415,"maps_url":"https://www.google.com/maps?q=36.8522300707162,42.9224146220481","banks":[{"bank_ku":"جیهان","bank_en":"Cihan","count":1,"sources":["krg","own"],"own_name":"Opposite Duhok Technical Institute"},{"bank_ku":"ئار تی","bank_en":"RT","count":2,"sources":["krg","own"],"own_name":"zanko duhok1"},{"bank_ku":"ئێن بی ئای","bank_en":"NBI","count":1,"sources":["krg"]}]},{"name":"مێرگەسۆر- نزیک وێستگەی کارەبای مێرگەسۆر","name_ku":"مێرگەسۆر- نزیک وێستگەی کارەبای مێرگەسۆر","name_ar":"","location_name":"Mergasur","type":"atm","governorate":"هەولێر","city":"مێرگەسۆر","region":"","latitude":36.851543,"longitude":44.293915,"maps_url":"https://www.google.com/maps?q=36.851543,44.293915","banks":[{"bank_ku":"جیهان","bank_en":"Cihan","count":2,"sources":["krg","own"],"own_name":"Mergasor District - Near Mergasor Power Station"},{"bank_ku":"ئار تی","bank_en":"RT","count":1,"sources":["krg","own"],"own_name":"Mergasur"}]},{"name":"دهۆک - بەرامبەر بانکی سەرهلدان","name_ku":"دهۆک - بەرامبەر بانکی سەرهلدان","name_ar":"","location_name":"Sarhldan","type":"atm","governorate":"دهۆک","city":"دهۆک","region":"","latitude":36.851145,"longitude":43.026227,"maps_url":"https://www.google.com/maps?q=36.85114533888,43.0262265865127","banks":[{"bank_ku":"جیهان","bank_en":"Cihan","count":1,"sources":["krg","own"],"own_name":"Opposite Serheldan Bank"},{"bank_ku":"ئار تی","bank_en":"RT","count":2,"sources":["krg","own"],"own_name":"Sarhaldan Bank"},{"bank_ku":"ئێن بی ئای","bank_en":"NBI","count":1,"sources":["krg"]},{"bank_ku":"بانکی بەغداد","bank_en":"Bank of Baghdad","count":1,"sources":["krg"]}]},{"name":"دهۆک - سێمێل تاپۆ.","name_ku":"دهۆک - سێمێل تاپۆ.","name_ar":"","location_name":"Tabu Simele Directorate","type":"atm","governorate":"دهۆک","city":"Simele","region":"","latitude":36.850673,"longitude":42.863616,"maps_url":"https://maps.app.goo.gl/qN3HuutUVhNr525n9","banks":[{"bank_ku":"ئار تی","bank_en":"RT","count":1,"sources":["krg","own"],"own_name":"Tabu Simele Directorate"},{"bank_ku":"بانکی بەغداد","bank_en":"Bank of Baghdad","count":1,"sources":["krg"]}]},{"name":"دهۆک - نێزیک مزگەفتا ڕۆناهی","name_ku":"دهۆک - نێزیک مزگەفتا ڕۆناهی","name_ar":"","location_name":"Shahidani Street","type":"atm","governorate":"دهۆک","city":"دهۆک","region":"","latitude":36.849928,"longitude":42.988668,"maps_url":"https://maps.app.goo.gl/QoyHikfu3c81YeNh6","banks":[{"bank_ku":"بانکی بەغداد","bank_en":"Bank of Baghdad","count":1,"sources":["krg"]},{"bank_ku":"بانکی گەشەپێدانی عێراقی","bank_en":"International Development Bank","count":1,"sources":["krg","own"],"own_name":"SHAHIDANI STREET RAZA ROAD"}]},{"name":"دهۆک - جادا جەوازاتیت کەڤن","name_ku":"دهۆک - جادا جەوازاتیت کەڤن","name_ar":"","location_name":"Bazar Road","type":"atm","governorate":"دهۆک","city":"دهۆک","region":"","latitude":36.84976,"longitude":42.940281,"maps_url":"https://maps.app.goo.gl/64hBthGzpf8LXp9LA","banks":[{"bank_ku":"ئار تی","bank_en":"RT","count":1,"sources":["krg","own"],"own_name":"Bazar Road"},{"bank_ku":"بانکی بەغداد","bank_en":"Bank of Baghdad","count":1,"sources":["krg"]}]},{"name":"MERGASUR NATIONAL LIBRARY","name_ku":"","name_ar":"","location_name":"","type":"atm","governorate":"","city":"","region":"ERBIL","latitude":36.847922680994,"longitude":44.3015543650842,"maps_url":"https://www.google.com/maps?q=36.847922680994,44.3015543650842","banks":[{"bank_ku":"بانکی گەشەپێدانی عێراقی","bank_en":"International Development Bank","count":1,"sources":["own"]}]},{"name":"Iraq - Duhok - Near Geely Bajger Company","name_ku":"نزیک کۆمپانیای جيلى باجگر","name_ar":"قرب شركة جيلي باجكر","location_name":"","type":"atm","governorate":"","city":"","region":"Duhok","latitude":36.847845,"longitude":43.035747,"maps_url":"https://www.google.com/maps?q=36.847845,43.035747","banks":[{"bank_ku":"جیهان","bank_en":"Cihan","count":1,"sources":["own"]}]},{"name":"دهۆک - نزیک کۆلێژی پزیشکی ددان و پزیشکی","name_ku":"دهۆک - نزیک کۆلێژی پزیشکی ددان و پزیشکی","name_ar":"","location_name":"Duhok l college of dentistry and medicine","type":"atm","governorate":"دهۆک","city":"دهۆک","region":"","latitude":36.847582,"longitude":42.999025,"maps_url":"https://maps.app.goo.gl/AvT592EtJFxcBZqp9","banks":[{"bank_ku":"ئار تی","bank_en":"RT","count":2,"sources":["krg","own"],"own_name":"college / dentistry - medicine 1"},{"bank_ku":"ئێن بی ئای","bank_en":"NBI","count":1,"sources":["krg"]}]},{"name":"ATM-DUHOK-Duhok Branch L","name_ku":"","name_ar":"","location_name":"","type":"atm","governorate":"","city":"","region":"","latitude":36.847372,"longitude":42.9707925,"maps_url":"https://www.google.com/maps?q=36.847372,42.9707925","banks":[{"bank_ku":"بانکی عێراقی بۆ بازرگانی","bank_en":"TBI","count":1,"sources":["own"]}]},{"name":"دهۆک - ڕێڤەبەریا گشتی یا باژێرڤانیێن پارێزگەها دهۆکێ","name_ku":"دهۆک - ڕێڤەبەریا گشتی یا باژێرڤانیێن پارێزگەها دهۆکێ","name_ar":"","location_name":"Blann Bazzar - Duhok","type":"atm","governorate":"دهۆک","city":"Duhok","region":"","latitude":36.84733208,"longitude":43.01323293,"maps_url":"https://www.google.com/maps?q=36.8473320763183,43.0132329288354","banks":[{"bank_ku":"جیهان","bank_en":"Cihan","count":2,"sources":["krg","own"],"own_name":"Opposite to Presidency of Duhok Municipality"},{"bank_ku":"ئار تی","bank_en":"RT","count":1,"sources":["krg","own"],"own_name":"Blann Bazzar - Duhok"},{"bank_ku":"ئێن بی ئای","bank_en":"NBI","count":1,"sources":["krg"]}]},{"name":"ATM- DUHOK - Branch W","name_ku":"","name_ar":"","location_name":"","type":"atm","governorate":"","city":"","region":"","latitude":36.8473206,"longitude":42.9708239,"maps_url":"https://www.google.com/maps?q=36.8473206,42.9708239","banks":[{"bank_ku":"بانکی عێراقی بۆ بازرگانی","bank_en":"TBI","count":1,"sources":["own"]}]},{"name":"ATM-DUHOK-Parwar Hotel","name_ku":"","name_ar":"","location_name":"","type":"atm","governorate":"","city":"","region":"","latitude":36.8470251,"longitude":43.0291879,"maps_url":"https://www.google.com/maps?q=36.8470251,43.0291879","banks":[{"bank_ku":"بانکی عێراقی بۆ بازرگانی","bank_en":"TBI","count":1,"sources":["own"]}]},{"name":"دهۆک - بەردەم ناڤەندی خانێ","name_ku":"دهۆک - بەردەم ناڤەندی خانێ","name_ar":"","location_name":"Amad Bank","type":"atm","governorate":"دهۆک","city":"دهۆک","region":"","latitude":36.846883,"longitude":43.003041,"maps_url":"https://www.google.com/maps?q=36.8468825363712,43.0030413591768","banks":[{"bank_ku":"جیهان","bank_en":"Cihan","count":1,"sources":["krg","own"],"own_name":"Near Barzani Park"},{"bank_ku":"ئار تی","bank_en":"RT","count":3,"sources":["krg","own"],"own_name":"AMAD 1"},{"bank_ku":"ئێن بی ئای","bank_en":"NBI","count":1,"sources":["krg"]}]},{"name":"دهۆک - تەنیشت ڕێڤەبەرییا تاپۆ یا دهۆکێ","name_ku":"دهۆک - تەنیشت ڕێڤەبەرییا تاپۆ یا دهۆکێ","name_ar":"","location_name":"Directorate of Environment","type":"atm","governorate":"دهۆک","city":"دهۆک","region":"","latitude":36.845636,"longitude":42.982578,"maps_url":"https://maps.app.goo.gl/6yheg6b66JcRhhtf6","banks":[{"bank_ku":"بانکی ئیسلامی عێراقی","bank_en":"Iraqi Islamic Bank","count":1,"sources":["krg","own"],"own_name":"صراف دهوك - مطعم وفندق آزادي"},{"bank_ku":"بانکی گەشەپێدانی عێراقی","bank_en":"International Development Bank","count":1,"sources":["krg","own"],"own_name":"DIRECTORATE OF ENVIRONMENT,DOHUK"}]},{"name":"Iraq - Duhok - Near Haji Hamd Mosque","name_ku":"بەردەم مزگەوتی حاجى حەمید","name_ar":"قرب مسجد الحاج حامد","location_name":"","type":"atm","governorate":"","city":"","region":"Duhok","latitude":36.843727,"longitude":43.00474,"maps_url":"https://www.google.com/maps?q=36.843727,43.00474","banks":[{"bank_ku":"جیهان","bank_en":"Cihan","count":1,"sources":["own"]}]},{"name":"نزیک نەخۆشخانەی مێرگەسۆر","name_ku":"نزیک نەخۆشخانەی مێرگەسۆر","name_ar":"","location_name":"Mergasur National Library","type":"atm","governorate":"هەولێر","city":"Mergasur","region":"","latitude":36.842998,"longitude":44.300778,"maps_url":"https://maps.app.goo.gl/vECJfHMtBq3vvQYY8","banks":[{"bank_ku":"بانکی ئیسلامی عێراقی","bank_en":"Iraqi Islamic Bank","count":1,"sources":["krg","own"],"own_name":"صراف أربيل - ميرجسور"},{"bank_ku":"بانکی گەشەپێدانی عێراقی","bank_en":"International Development Bank","count":1,"sources":["krg"]}]},{"name":"Mergasur National Library","name_ku":"کتێبخانەی ميركسور","name_ar":"مكتبة ميركسور","location_name":"","type":"atm","governorate":"","city":"","region":"Erbil","latitude":36.84289394,"longitude":44.30083937,"maps_url":"https://www.google.com/maps?q=36.84289394,44.30083937","banks":[{"bank_ku":"ئار تی","bank_en":"RT","count":1,"sources":["own"]}]},{"name":"دهۆک - نزارکێ","name_ku":"دهۆک - نزارکێ","name_ar":"","location_name":"Parshad Street","type":"atm","governorate":"دهۆک","city":"دهۆک","region":"","latitude":36.841771,"longitude":43.057132,"maps_url":"https://maps.app.goo.gl/MnwLzD3X2Wo7pLnT8","banks":[{"bank_ku":"ئار تی","bank_en":"RT","count":1,"sources":["krg","own"],"own_name":"Parshad Street"}]},{"name":"نزیک قایمقامیەتی مێرگەسۆر","name_ku":"نزیک قایمقامیەتی مێرگەسۆر","name_ar":"","location_name":"Mergasur District Office","type":"atm","governorate":"هەولێر","city":"Mergasur","region":"","latitude":36.839196,"longitude":44.300502,"maps_url":"https://maps.app.goo.gl/ig36uLt8e9awRRXKA","banks":[{"bank_ku":"بانکی بەغداد","bank_en":"Bank of Baghdad","count":1,"sources":["krg","own"],"own_name":"Mergasur District Offic"},{"bank_ku":"بانکی گەشەپێدانی عێراقی","bank_en":"International Development Bank","count":1,"sources":["krg","own"],"own_name":"MERGASUR DISTRICT OFFICE"}]},{"name":"Mergasur District Office","name_ku":"ميركسور","name_ar":"ميركسور","location_name":"","type":"atm","governorate":"","city":"","region":"Erbil","latitude":36.83912421,"longitude":44.30055919,"maps_url":"https://www.google.com/maps?q=36.83912421,44.30055919","banks":[{"bank_ku":"ئار تی","bank_en":"RT","count":1,"sources":["own"]}]},{"name":"","name_ku":"","name_ar":"","location_name":"Mergasor 1","type":"atm","governorate":"هەولێر","city":"Mergasur","region":"","latitude":36.83784,"longitude":44.30769,"maps_url":"https://www.google.com/maps?q=36.83784,44.30769","banks":[{"bank_ku":"ئێن بی ئای","bank_en":"NBI","count":1,"sources":["krg"]},{"bank_ku":"بانکی ئیسلامی عێراقی","bank_en":"Iraqi Islamic Bank","count":1,"sources":["krg"]}]},{"name":"بەردەم  وێستگەی کارەبای سیدەکان","name_ku":"بەردەم  وێستگەی کارەبای سیدەکان","name_ar":"","location_name":"Sidakan Hospital","type":"atm","governorate":"هەولێر","city":"Sidakan","region":"","latitude":36.804256,"longitude":44.661162,"maps_url":"https://maps.app.goo.gl/R6dkXcsijjrv5GzL7","banks":[{"bank_ku":"بانکی بەغداد","bank_en":"Bank of Baghdad","count":1,"sources":["krg"]},{"bank_ku":"بانکی ئیسلامی عێراقی","bank_en":"Iraqi Islamic Bank","count":1,"sources":["krg","own"],"own_name":"صراف أربيل - سيدكان"}]},{"name":"دهۆک، دۆميز - بەرامبەر بانکێ دۆميز","name_ku":"دهۆک، دۆميز - بەرامبەر بانکێ دۆميز","name_ar":"","location_name":"Duhok","type":"atm","governorate":"دهۆک","city":"دهۆک","region":"","latitude":36.792233,"longitude":42.912022,"maps_url":"https://www.google.com/maps?q=36.7922327964434,42.9120224563556","banks":[{"bank_ku":"جیهان","bank_en":"Cihan","count":1,"sources":["krg","own"],"own_name":"Domiz - Opposite Domiz Bank"},{"bank_ku":"ئار تی","bank_en":"RT","count":1,"sources":["krg","own"],"own_name":"Dumis"},{"bank_ku":"ئێن بی ئای","bank_en":"NBI","count":1,"sources":["krg"]}]},{"name":"ئاکرێ - خرگا","name_ku":"ئاکرێ - خرگا","name_ar":"","location_name":"Akre Maternity Hospital","type":"atm","governorate":"دهۆک","city":"ئاکری","region":"","latitude":36.754094,"longitude":43.898677,"maps_url":"https://maps.app.goo.gl/CaLCcX1MDMkriekH9","banks":[{"bank_ku":"ئێن بی ئای","bank_en":"NBI","count":1,"sources":["krg"]},{"bank_ku":"بانکی گەشەپێدانی عێراقی","bank_en":"International Development Bank","count":1,"sources":["krg"]}]},{"name":"AKRE MATERNITY HOSPITAL,Dohuk","name_ku":"","name_ar":"","location_name":"","type":"atm","governorate":"","city":"","region":"DHOUK","latitude":36.7489844317092,"longitude":43.8940736834903,"maps_url":"https://www.google.com/maps?q=36.7489844317092,43.8940736834903","banks":[{"bank_ku":"بانکی گەشەپێدانی عێراقی","bank_en":"International Development Bank","count":1,"sources":["own"]}]},{"name":"ئاکری - نزیک بەرێوەبەرایەتی هاتووچوو ئاکری","name_ku":"ئاکری - نزیک بەرێوەبەرایەتی هاتووچوو ئاکری","name_ar":"","location_name":"Akre","type":"atm","governorate":"دهۆک","city":"ئاکری","region":"","latitude":36.739689,"longitude":43.883488,"maps_url":"https://maps.app.goo.gl/oWX8YBfxp4WMcHwG6","banks":[{"bank_ku":"ئار تی","bank_en":"RT","count":3,"sources":["krg","own"],"own_name":"sipa1"}]},{"name":"ئاکرێ - تەنیشت مزگەفتا شورەش","name_ku":"ئاکرێ - تەنیشت مزگەفتا شورەش","name_ar":"","location_name":"Akre Sorash","type":"atm","governorate":"دهۆک","city":"ئاکری","region":"","latitude":36.739298,"longitude":43.89783,"maps_url":"https://maps.app.goo.gl/YkRvRMnyHswdFpbWA","banks":[{"bank_ku":"ئار تی","bank_en":"RT","count":1,"sources":["krg","own"],"own_name":"Shorash Park"},{"bank_ku":"بانکی ئیسلامی عێراقی","bank_en":"Iraqi Islamic Bank","count":1,"sources":["krg"]}]},{"name":"ئاکرێ - قوتابخانەی ئامادەیی ئازادی کچان","name_ku":"ئاکرێ - قوتابخانەی ئامادەیی ئازادی کچان","name_ar":"","location_name":"Pirs 1","type":"atm","governorate":"دهۆک","city":"Akre","region":"","latitude":36.73456,"longitude":43.87412,"maps_url":"https://www.google.com/maps?q=36.73456,43.87412","banks":[{"bank_ku":"ئێن بی ئای","bank_en":"NBI","count":1,"sources":["krg"]},{"bank_ku":"بانکی ئیسلامی عێراقی","bank_en":"Iraqi Islamic Bank","count":1,"sources":["krg"]}]},{"name":"ئاکرێ - بەرامبەر هۆڵا کۆنفرانسا","name_ku":"ئاکرێ - بەرامبەر هۆڵا کۆنفرانسا","name_ar":"","location_name":"Sipa 1","type":"atm","governorate":"دهۆک","city":"Akre","region":"","latitude":36.73449,"longitude":43.89067,"maps_url":"https://www.google.com/maps?q=36.73449,43.89067","banks":[{"bank_ku":"ئێن بی ئای","bank_en":"NBI","count":1,"sources":["krg"]},{"bank_ku":"بانکی ئیسلامی عێراقی","bank_en":"Iraqi Islamic Bank","count":1,"sources":["krg"]}]},{"name":"ئاکری - نزیک بەرێوەبەرایەتی شارەوانی ئاکری","name_ku":"ئاکری - نزیک بەرێوەبەرایەتی شارەوانی ئاکری","name_ar":"","location_name":"Akre","type":"atm","governorate":"دهۆک","city":"ئاکری","region":"","latitude":36.731973,"longitude":43.879224,"maps_url":"https://maps.app.goo.gl/7xH4BvEQcuM5BVuR6","banks":[{"bank_ku":"ئار تی","bank_en":"RT","count":3,"sources":["krg","own"],"own_name":"Old Akre Stadium"}]},{"name":"AKRE TECHNICAL COLLEGE","name_ku":"","name_ar":"","location_name":"","type":"atm","governorate":"","city":"","region":"DHOUK","latitude":36.7297539991361,"longitude":43.8512173077863,"maps_url":"https://www.google.com/maps?q=36.7297539991361,43.8512173077863","banks":[{"bank_ku":"بانکی گەشەپێدانی عێراقی","bank_en":"International Development Bank","count":1,"sources":["own"]}]},{"name":"ئاکرێ - خواندنگەها رزگاری","name_ku":"ئاکرێ - خواندنگەها رزگاری","name_ar":"","location_name":"Akre Police Station","type":"atm","governorate":"دهۆک","city":"ئاکری","region":"","latitude":36.729328,"longitude":43.871761,"maps_url":"https://maps.app.goo.gl/YWPuApQVua7fBN3j9","banks":[{"bank_ku":"ئێن بی ئای","bank_en":"NBI","count":1,"sources":["krg"]},{"bank_ku":"بانکی بەغداد","bank_en":"Bank of Baghdad","count":1,"sources":["krg"]},{"bank_ku":"بانکی گەشەپێدانی عێراقی","bank_en":"International Development Bank","count":1,"sources":["krg","own"],"own_name":"AKRE POLICE STATION,Dohuk"}]},{"name":"ئاکرێ - جادا گشتی بەردەم پارکا ئاکرێ","name_ku":"ئاکرێ - جادا گشتی بەردەم پارکا ئاکرێ","name_ar":"","location_name":"Akre Technical College","type":"atm","governorate":"دهۆک","city":"ئاکری","region":"","latitude":36.725695,"longitude":43.843476,"maps_url":"https://maps.app.goo.gl/dzKcvxY9NtKJAoYU6","banks":[{"bank_ku":"ئێن بی ئای","bank_en":"NBI","count":1,"sources":["krg"]},{"bank_ku":"بانکی گەشەپێدانی عێراقی","bank_en":"International Development Bank","count":1,"sources":["krg"]}]},{"name":"ئاکرێ - بەردەم ڕوداو مارکێت","name_ku":"ئاکرێ - بەردەم ڕوداو مارکێت","name_ar":"","location_name":"Akre Department of Environment","type":"atm","governorate":"دهۆک","city":"ئاکری","region":"","latitude":36.72405,"longitude":43.873158,"maps_url":"https://maps.app.goo.gl/uFihu8u4kSKexGih7","banks":[{"bank_ku":"ئار تی","bank_en":"RT","count":1,"sources":["krg","own"],"own_name":"Akre Department of Environment"},{"bank_ku":"بانکی ئیسلامی عێراقی","bank_en":"Iraqi Islamic Bank","count":1,"sources":["krg","own"],"own_name":"صراف عقرة - جامع روداو"}]},{"name":"SHEKHAN GOV OFFICE AIN SIFNY,DOHUK","name_ku":"","name_ar":"","location_name":"","type":"atm","governorate":"","city":"","region":"DHOUK","latitude":36.6997422414924,"longitude":43.3518354436594,"maps_url":"https://www.google.com/maps?q=36.6997422414924,43.3518354436594","banks":[{"bank_ku":"بانکی گەشەپێدانی عێراقی","bank_en":"International Development Bank","count":1,"sources":["own"]}]},{"name":"شێخان - دبن ڕێڤەبەرییا ئاسایشا شێخان دا","name_ku":"شێخان - دبن ڕێڤەبەرییا ئاسایشا شێخان دا","name_ar":"","location_name":"Shekhan Gov. Office","type":"atm","governorate":"دهۆک","city":"Shekhan","region":"","latitude":36.697814,"longitude":43.350828,"maps_url":"https://maps.app.goo.gl/k4BJuG1SFdqRbrMd8","banks":[{"bank_ku":"ئێن بی ئای","bank_en":"NBI","count":1,"sources":["krg"]},{"bank_ku":"بانکی بەغداد","bank_en":"Bank of Baghdad","count":1,"sources":["krg"]},{"bank_ku":"بانکی گەشەپێدانی عێراقی","bank_en":"International Development Bank","count":1,"sources":["krg"]}]},{"name":"سۆران، دێلزیا- بەردەم کۆلێژی تەکنیکی سۆران","name_ku":"سۆران، دێلزیا- بەردەم کۆلێژی تەکنیکی سۆران","name_ar":"","location_name":"Delzya","type":"atm","governorate":"هەولێر","city":"دێلزیا","region":"","latitude":36.695411,"longitude":44.530562,"maps_url":"https://maps.app.goo.gl/xHAbMnzHajbhUse77","banks":[{"bank_ku":"جیهان","bank_en":"Cihan","count":2,"sources":["krg","own"],"own_name":"Soran Subdistrict - Dailizan"},{"bank_ku":"ئار تی","bank_en":"RT","count":1,"sources":["krg","own"],"own_name":"Soran Technical College"}]},{"name":"شێخان - نزيک بانکی شێخان","name_ku":"شێخان - نزيک بانکی شێخان","name_ar":"","location_name":"Shekhan","type":"atm","governorate":"دهۆک","city":"شێخان","region":"","latitude":36.685478,"longitude":43.346061,"maps_url":"https://www.google.com/maps?q=36.6854782075985,43.3460607816527","banks":[{"bank_ku":"جیهان","bank_en":"Cihan","count":1,"sources":["krg","own"],"own_name":"Sheikhan District - Opposite Sheikhan Bank"},{"bank_ku":"ئار تی","bank_en":"RT","count":2,"sources":["krg","own"],"own_name":"SHEKHAN 1"},{"bank_ku":"ئێن بی ئای","bank_en":"NBI","count":1,"sources":["krg"]}]},{"name":"شێخان - بەردەم یاریگەها شێخان","name_ku":"شێخان - بەردەم یاریگەها شێخان","name_ar":"","location_name":"Shekhan Education Directorate","type":"atm","governorate":"دهۆک","city":"Shekhan","region":"","latitude":36.681996,"longitude":43.34096,"maps_url":"https://maps.app.goo.gl/3NTcf6UMpYjg5Es76","banks":[{"bank_ku":"ئار تی","bank_en":"RT","count":1,"sources":["krg","own"],"own_name":"Shekhan Education Directorate"},{"bank_ku":"بانکی ئیسلامی عێراقی","bank_en":"Iraqi Islamic Bank","count":1,"sources":["krg","own"],"own_name":"صراف دهوك - شيخان"}]},{"name":"سۆران - ئازادی - نزیک مزگەوتی سبغة اللە","name_ku":"سۆران - ئازادی - نزیک مزگەوتی سبغة اللە","name_ar":"","location_name":"Diana","type":"atm","governorate":"هەولێر","city":"سۆران","region":"","latitude":36.678207,"longitude":44.536593,"maps_url":"https://maps.app.goo.gl/C427Xi1Q5o9EgNCw8?g_st=iw","banks":[{"bank_ku":"ئار تی","bank_en":"RT","count":1,"sources":["krg","own"],"own_name":"Diana"},{"bank_ku":"بانکی بەغداد","bank_en":"Bank of Baghdad","count":1,"sources":["krg","own"],"own_name":"Diana"}]},{"name":"Shekhan District's Governor Office","name_ku":"قایمقامیەتی قەزای شێخان","name_ar":"قائمقامية قضاء شيخان","location_name":"","type":"atm","governorate":"","city":"","region":"Erbil","latitude":36.673635,"longitude":43.33376,"maps_url":"https://www.google.com/maps?q=36.673635,43.33376","banks":[{"bank_ku":"جیهان","bank_en":"Cihan","count":1,"sources":["own"]}]},{"name":"سۆران - بەردەم کشتوکالی سۆران","name_ku":"سۆران - بەردەم کشتوکالی سۆران","name_ar":"","location_name":"Dersim street","type":"atm","governorate":"هەولێر","city":"سۆران","region":"","latitude":36.657786,"longitude":44.542894,"maps_url":"https://maps.app.goo.gl/kbWanirKE6WvdtFJ9","banks":[{"bank_ku":"بانکی بەغداد","bank_en":"Bank of Baghdad","count":1,"sources":["krg"]},{"bank_ku":"بانکی ئیسلامی عێراقی","bank_en":"Iraqi Islamic Bank","count":1,"sources":["krg","own"],"own_name":"صراف أربيل - دارسيم"},{"bank_ku":"بانکی گەشەپێدانی عێراقی","bank_en":"International Development Bank","count":1,"sources":["krg","own"],"own_name":"DERSIM STREET,ERBIL"}]},{"name":"Soran Police Directorate","name_ku":"بەڕێوەبەرایەتی پۆلیسی سۆران","name_ar":"مديرية شرطة سوران","location_name":"","type":"atm","governorate":"","city":"","region":"Erbil","latitude":36.65300668,"longitude":44.551541,"maps_url":"https://www.google.com/maps?q=36.65300668,44.551541","banks":[{"bank_ku":"ئار تی","bank_en":"RT","count":1,"sources":["own"]}]},{"name":"سۆران - بەردەم مزگەوتی سەروەران","name_ku":"سۆران - بەردەم مزگەوتی سەروەران","name_ar":"","location_name":"Dilman 2","type":"atm","governorate":"هەولێر","city":"Soran","region":"","latitude":36.65288,"longitude":44.52949,"maps_url":"https://www.google.com/maps?q=36.65288,44.52949","banks":[{"bank_ku":"ئێن بی ئای","bank_en":"NBI","count":1,"sources":["krg"]},{"bank_ku":"بانکی ئیسلامی عێراقی","bank_en":"Iraqi Islamic Bank","count":1,"sources":["krg","own"],"own_name":"صراف أربيل - ديلمان"}]},{"name":"سۆران - بەردەم بانکی ئازادی","name_ku":"سۆران - بەردەم بانکی ئازادی","name_ar":"","location_name":"Soran","type":"atm","governorate":"هەولێر","city":"سۆران","region":"","latitude":36.652008,"longitude":44.534052,"maps_url":"https://maps.app.goo.gl/FxJRvEJY9iXPVbU67","banks":[{"bank_ku":"جیهان","bank_en":"Cihan","count":2,"sources":["krg","own"],"own_name":"Soran District - Azadi Neighborhood"},{"bank_ku":"ئار تی","bank_en":"RT","count":1,"sources":["krg","own"],"own_name":"Azadi Bank"}]},{"name":"Harem","name_ku":"Harem","name_ar":"Harem","location_name":"","type":"atm","governorate":"","city":"","region":"Erbil","latitude":36.65190111,"longitude":44.52291837,"maps_url":"https://www.google.com/maps?q=36.65190111,44.52291837","banks":[{"bank_ku":"ئار تی","bank_en":"RT","count":1,"sources":["own"]}]},{"name":"سۆران - بەردەم نەخۆشخانەی هەرێم","name_ku":"سۆران - بەردەم نەخۆشخانەی هەرێم","name_ar":"","location_name":"Harem","type":"atm","governorate":"هەولێر","city":"سۆران","region":"","latitude":36.651781,"longitude":44.522849,"maps_url":"https://maps.app.goo.gl/fzVV68nR226L6VAPA","banks":[{"bank_ku":"بانکی بەغداد","bank_en":"Bank of Baghdad","count":1,"sources":["krg"]},{"bank_ku":"بانکی ئیسلامی عێراقی","bank_en":"Iraqi Islamic Bank","count":1,"sources":["krg"]},{"bank_ku":"بانکی گەشەپێدانی عێراقی","bank_en":"International Development Bank","count":1,"sources":["krg"]}]},{"name":"سۆران - نزیک کەبابخانەی مام دەروێش","name_ku":"سۆران - نزیک کەبابخانەی مام دەروێش","name_ar":"","location_name":"Soran Police Direcorate","type":"atm","governorate":"هەولێر","city":"سۆران","region":"","latitude":36.65175,"longitude":44.55008,"maps_url":"https://maps.app.goo.gl/QTKwkjDfqnrCGFSc6","banks":[{"bank_ku":"ئار تی","bank_en":"RT","count":1,"sources":["krg"]},{"bank_ku":"بانکی ئیسلامی عێراقی","bank_en":"Iraqi Islamic Bank","count":1,"sources":["krg","own"],"own_name":"صراف أربيل - سوران"}]},{"name":"بەردەم بەڕێوەبەرایەتی گشتی تەندروستی سۆران","name_ku":"بەردەم بەڕێوەبەرایەتی گشتی تەندروستی سۆران","name_ar":"","location_name":"Barzan","type":"atm","governorate":"هەولێر","city":"Soran","region":"","latitude":36.649745,"longitude":44.533227,"maps_url":"https://maps.app.goo.gl/uAsuL6SALMs2pDd26","banks":[{"bank_ku":"بانکی بەغداد","bank_en":"Bank of Baghdad","count":1,"sources":["krg"]},{"bank_ku":"بانکی گەشەپێدانی عێراقی","bank_en":"International Development Bank","count":1,"sources":["krg"]}]},{"name":"Barzan","name_ku":"بارزان","name_ar":"بارزان","location_name":"","type":"atm","governorate":"","city":"","region":"Erbil","latitude":36.64974079,"longitude":44.53323171,"maps_url":"https://www.google.com/maps?q=36.64974079,44.53323171","banks":[{"bank_ku":"ئار تی","bank_en":"RT","count":1,"sources":["own"]}]},{"name":"Soran District - Near Ashti Hospital","name_ku":"قەزای سۆران - نزیک نەخۆشخانەی ئاشتی","name_ar":"قضاء سوران - قرب مستشفى آشتي","location_name":"","type":"atm","governorate":"","city":"","region":"Erbil","latitude":36.647536,"longitude":44.511296,"maps_url":"https://www.google.com/maps?q=36.647536,44.511296","banks":[{"bank_ku":"جیهان","bank_en":"Cihan","count":1,"sources":["own"]}]},{"name":"SORAN RAWANDUZ ROAD,ERBIL","name_ku":"","name_ar":"","location_name":"","type":"atm","governorate":"","city":"","region":"ERBIL","latitude":36.6469453647282,"longitude":44.5402811353623,"maps_url":"https://www.google.com/maps?q=36.6469453647282,44.5402811353623","banks":[{"bank_ku":"بانکی گەشەپێدانی عێراقی","bank_en":"International Development Bank","count":1,"sources":["own"]}]},{"name":"صراف أربيل - سوران (AZADI 240)","name_ku":"","name_ar":"","location_name":"","type":"atm","governorate":"","city":"","region":"","latitude":36.644528,"longitude":44.543472,"maps_url":"https://www.google.com/maps?q=36.644528,44.543472","banks":[{"bank_ku":"بانکی ئیسلامی عێراقی","bank_en":"Iraqi Islamic Bank","count":1,"sources":["own"]}]},{"name":"چۆمان - نزیک هاتووچۆی چۆمان","name_ku":"چۆمان - نزیک هاتووچۆی چۆمان","name_ar":"","location_name":"Choman 1","type":"atm","governorate":"هەولێر","city":"Choman","region":"","latitude":36.64107,"longitude":44.89234,"maps_url":"https://www.google.com/maps?q=36.64107,44.89234","banks":[{"bank_ku":"ئێن بی ئای","bank_en":"NBI","count":1,"sources":["krg"]},{"bank_ku":"بانکی ئیسلامی عێراقی","bank_en":"Iraqi Islamic Bank","count":1,"sources":["krg","own"],"own_name":"صراف أربيل - جومان"}]},{"name":"سۆران - بەردەم نەخۆشخانەی لەدایکبوون","name_ku":"سۆران - بەردەم نەخۆشخانەی لەدایکبوون","name_ar":"","location_name":"Soran - Wilada","type":"atm","governorate":"هەولێر","city":"سۆران","region":"","latitude":36.63757,"longitude":44.558545,"maps_url":"https://maps.app.goo.gl/2DfhCgcCvbn2k8uS7","banks":[{"bank_ku":"جیهان","bank_en":"Cihan","count":2,"sources":["krg","own"],"own_name":"Soran District - Near Maternity Hospital"},{"bank_ku":"ئار تی","bank_en":"RT","count":1,"sources":["krg","own"],"own_name":"General Directorate of Soran Municipalities"},{"bank_ku":"ئێن بی ئای","bank_en":"NBI","count":1,"sources":["krg"]}]},{"name":"دهۆک - چرە.","name_ku":"دهۆک - چرە.","name_ar":"","location_name":"Duhok Highway l Remote","type":"atm","governorate":"دهۆک","city":"چڕە","region":"","latitude":36.637447,"longitude":43.523008,"maps_url":"https://maps.app.goo.gl/PMh4zfzksb81wZMH6","banks":[{"bank_ku":"ئار تی","bank_en":"RT","count":1,"sources":["krg","own"],"own_name":"Duhok Highway | Remote"}]},{"name":"چۆمان - بەرامبەر بانکی چۆمان","name_ku":"چۆمان - بەرامبەر بانکی چۆمان","name_ar":"","location_name":"Choman Stadium","type":"atm","governorate":"هەولێر","city":"Choman","region":"","latitude":36.637147,"longitude":44.889606,"maps_url":"https://maps.app.goo.gl/FKf6HtnAjmFvwrje9?g_st=iw","banks":[{"bank_ku":"ئار تی","bank_en":"RT","count":1,"sources":["krg","own"],"own_name":"Choman Stadium"}]},{"name":"چۆمان- نزیک پارکی قائیمقام","name_ku":"چۆمان- نزیک پارکی قائیمقام","name_ar":"","location_name":"Choman","type":"atm","governorate":"هەولێر","city":"چۆمان","region":"","latitude":36.63189,"longitude":44.884451,"maps_url":"https://maps.app.goo.gl/2VKHB1zu8HA6xB9d6","banks":[{"bank_ku":"جیهان","bank_en":"Cihan","count":2,"sources":["krg","own"],"own_name":"Choman District - Near Municipal Park"},{"bank_ku":"ئار تی","bank_en":"RT","count":1,"sources":["krg","own"],"own_name":"District Commissioner of Joman"}]},{"name":"رەواندز - نزیک قایمقامیەتی رەواندز","name_ku":"رەواندز - نزیک قایمقامیەتی رەواندز","name_ar":"","location_name":"Rwandz","type":"atm","governorate":"هەولێر","city":"رواندز","region":"","latitude":36.619854,"longitude":44.533141,"maps_url":"https://maps.app.goo.gl/NsAv5dvCB96jhsCz5","banks":[{"bank_ku":"جیهان","bank_en":"Cihan","count":2,"sources":["krg","own"],"own_name":"Rawanduz District - Near Municipality"},{"bank_ku":"ئار تی","bank_en":"RT","count":1,"sources":["krg","own"],"own_name":"Rwanduz Qaimqamiya"}]},{"name":"رۆڤیا - تەنیشت بەرێوەبەرایەتی پۆلیسی رۆڤیا","name_ku":"رۆڤیا - تەنیشت بەرێوەبەرایەتی پۆلیسی رۆڤیا","name_ar":"","location_name":"Rovia","type":"atm","governorate":"دهۆک","city":"رۆڤیا","region":"","latitude":36.618776,"longitude":43.702573,"maps_url":"https://www.google.com/maps?q=36.6187755589003,43.7025725711645","banks":[{"bank_ku":"جیهان","bank_en":"Cihan","count":2,"sources":["krg","own"],"own_name":"Rovia Subdistrict - Next to Rovia Police Station"},{"bank_ku":"ئار تی","bank_en":"RT","count":1,"sources":["krg","own"],"own_name":"Ruvia"},{"bank_ku":"ئێن بی ئای","bank_en":"NBI","count":1,"sources":["krg"]}]},{"name":"Rawanduz Stadium","name_ku":"ملعب راوندوز","name_ar":"ملعب راوندوز","location_name":"","type":"atm","governorate":"","city":"","region":"Erbil","latitude":36.61118334,"longitude":44.51863419,"maps_url":"https://www.google.com/maps?q=36.61118334,44.51863419","banks":[{"bank_ku":"ئار تی","bank_en":"RT","count":1,"sources":["own"]}]},{"name":"نزیک تێبینەرایەتی ئەوقافی رواندز","name_ku":"نزیک تێبینەرایەتی ئەوقافی رواندز","name_ar":"","location_name":"Rawanduz Stadium","type":"atm","governorate":"هەولێر","city":"سۆران","region":"","latitude":36.611089,"longitude":44.518597,"maps_url":"https://maps.app.goo.gl/VZEdAbmNQVfeoagK9","banks":[{"bank_ku":"ئێن بی ئای","bank_en":"NBI","count":1,"sources":["krg"]}]},{"name":"RAWANDUZ STADIUM NEAR SHAD FUEL STATION,ERBIL","name_ku":"","name_ar":"","location_name":"","type":"atm","governorate":"","city":"","region":"ERBIL","latitude":36.6110886,"longitude":44.5185966,"maps_url":"https://www.google.com/maps?q=36.6110886,44.5185966","banks":[{"bank_ku":"بانکی گەشەپێدانی عێراقی","bank_en":"International Development Bank","count":1,"sources":["own"]}]},{"name":"نزیک پارکی خەلیفان","name_ku":"نزیک پارکی خەلیفان","name_ar":"","location_name":"Khalifan Library","type":"atm","governorate":"هەولێر","city":"Khalifan","region":"","latitude":36.609512,"longitude":44.405295,"maps_url":"https://maps.app.goo.gl/2vfMWiLgHfbBRJoQ6","banks":[{"bank_ku":"بانکی ئیسلامی عێراقی","bank_en":"Iraqi Islamic Bank","count":1,"sources":["krg","own"],"own_name":"صراف أربيل - خليفان"}]},{"name":"KHALIFAN LIBRARY,Soran road,Erbil","name_ku":"","name_ar":"","location_name":"","type":"atm","governorate":"","city":"","region":"ERBIL","latitude":36.6095116,"longitude":44.4052946,"maps_url":"https://www.google.com/maps?q=36.6095116,44.4052946","banks":[{"bank_ku":"بانکی گەشەپێدانی عێراقی","bank_en":"International Development Bank","count":1,"sources":["own"]}]},{"name":"خەلیفان-بەردەم  بنکەی ئاگرکوژێنەوەی خەلیفان","name_ku":"خەلیفان-بەردەم  بنکەی ئاگرکوژێنەوەی خەلیفان","name_ar":"","location_name":"Khalifan","type":"atm","governorate":"هەولێر","city":"خەلیفان","region":"","latitude":36.604243,"longitude":44.400573,"maps_url":"https://maps.app.goo.gl/GVn8iWhm2YVFfQ48A","banks":[{"bank_ku":"جیهان","bank_en":"Cihan","count":2,"sources":["krg","own"],"own_name":"Khalifan District - Opposite Fire Station"},{"bank_ku":"ئار تی","bank_en":"RT","count":1,"sources":["krg","own"],"own_name":"Khalifan Agricultural Department"}]},{"name":"Petro Weld","name_ku":"","name_ar":"","location_name":"","type":"atm","governorate":"","city":"","region":"","latitude":36.55923128113153,"longitude":43.63203671080022,"maps_url":"https://www.google.com/maps?q=36.55923128113153,43.63203671080022","banks":[{"bank_ku":"ئێن بی ئای","bank_en":"NBI","count":1,"sources":["own"]}]},{"name":"بەردەم وێستگەی کارەبای هەریر","name_ku":"بەردەم وێستگەی کارەبای هەریر","name_ar":"","location_name":"Harir Municipality","type":"atm","governorate":"هەولێر","city":"Harir","region":"","latitude":36.555775,"longitude":44.35014,"maps_url":"https://maps.app.goo.gl/NrsnMcq2yJ2jeTcaA","banks":[{"bank_ku":"بانکی ئیسلامی عێراقی","bank_en":"Iraqi Islamic Bank","count":1,"sources":["krg","own"],"own_name":"صراف أربيل - حرير"},{"bank_ku":"بانکی گەشەپێدانی عێراقی","bank_en":"International Development Bank","count":1,"sources":["krg","own"],"own_name":"HARIR MUNICIPALITY,ERBIL"}]},{"name":"بەردەم شارەوانی هەریر","name_ku":"بەردەم شارەوانی هەریر","name_ar":"","location_name":"Harir Electricity Station","type":"atm","governorate":"هەولێر","city":"Harir","region":"","latitude":36.549212,"longitude":44.35823,"maps_url":"https://maps.app.goo.gl/BHhrryvmKdhf4yMKA","banks":[{"bank_ku":"بانکی بەغداد","bank_en":"Bank of Baghdad","count":1,"sources":["krg"]}]},{"name":"Harir Electricity Station","name_ku":"وێستگەی کارەبای هەریر","name_ar":"محطة كهرباء حرير","location_name":"","type":"atm","governorate":"","city":"","region":"Erbil","latitude":36.54920922,"longitude":44.35823165,"maps_url":"https://www.google.com/maps?q=36.54920922,44.35823165","banks":[{"bank_ku":"ئار تی","bank_en":"RT","count":1,"sources":["own"]}]},{"name":"هەریر- بەردەم بانکی هەریر","name_ku":"هەریر- بەردەم بانکی هەریر","name_ar":"","location_name":"Harir","type":"atm","governorate":"هەولێر","city":"هەریر","region":"","latitude":36.54897,"longitude":44.351746,"maps_url":"https://www.google.com/maps?q=36.54897,44.3517461","banks":[{"bank_ku":"جیهان","bank_en":"Cihan","count":2,"sources":["krg","own"],"own_name":"Harir District - Opposite Harir Bank"},{"bank_ku":"ئار تی","bank_en":"RT","count":1,"sources":["krg","own"],"own_name":"Harir National Card Office"},{"bank_ku":"ئێن بی ئای","bank_en":"NBI","count":1,"sources":["krg"]}]},{"name":"Bardarash - Opposite Afrin Park","name_ku":"بەردەڕەش - بەرامبەر پاركي ئەفرين","name_ar":"بردرش - مقابل افرين بارك","location_name":"","type":"atm","governorate":"","city":"","region":"Erbil","latitude":36.519468,"longitude":43.587746,"maps_url":"https://www.google.com/maps?q=36.519468,43.587746","banks":[{"bank_ku":"جیهان","bank_en":"Cihan","count":1,"sources":["own"]}]},{"name":"بەردەڕەش - بەرامبەر پارکي ئەفرين","name_ku":"بەردەڕەش - بەرامبەر پارکي ئەفرين","name_ar":"","location_name":"Bardarash Technical Institute","type":"atm","governorate":"دهۆک","city":"بەردەڕەش","region":"","latitude":36.505618,"longitude":43.585277,"maps_url":"https://www.google.com/maps?q=36.5056182096474,43.5852773863194","banks":[{"bank_ku":"جیهان","bank_en":"Cihan","count":1,"sources":["krg"]},{"bank_ku":"ئار تی","bank_en":"RT","count":3,"sources":["krg","own"],"own_name":"Bardarash Technical Institute 1"},{"bank_ku":"ئێن بی ئای","bank_en":"NBI","count":1,"sources":["krg"]},{"bank_ku":"بانکی ئیسلامی عێراقی","bank_en":"Iraqi Islamic Bank","count":1,"sources":["krg","own"],"own_name":"صراف أربيل - بردرش"}]},{"name":"Bardarash Governor Office - Opposite Bardarash Bank","name_ku":"قایمقامیەتی بەردەڕەش - بەرامبەر بانکی بەردەڕەش'ی حكومى","name_ar":"قائمقامية بردرش - مقابل مصرف بردرش الحكومي","location_name":"","type":"atm","governorate":"","city":"","region":"Erbil","latitude":36.505128,"longitude":43.595172,"maps_url":"https://www.google.com/maps?q=36.505128,43.595172","banks":[{"bank_ku":"جیهان","bank_en":"Cihan","count":1,"sources":["own"]}]},{"name":"شەقڵاوە -بەردەم پەروەردەی شەقڵاوە","name_ku":"شەقڵاوە -بەردەم پەروەردەی شەقڵاوە","name_ar":"","location_name":"Shaqlawa 1","type":"atm","governorate":"هەولێر","city":"شەقڵاوە","region":"","latitude":36.409912,"longitude":44.311609,"maps_url":"https://maps.app.goo.gl/f1gc13i4JtnncLWF6","banks":[{"bank_ku":"جیهان","bank_en":"Cihan","count":2,"sources":["krg","own"],"own_name":"Shaqlawa District - Opposite Shaqlawa Directorate of Education"},{"bank_ku":"ئار تی","bank_en":"RT","count":1,"sources":["krg","own"],"own_name":"Shaqlawa Education"}]},{"name":"شەقڵاوە- بەردەم قایمقامیەتی قەزای شەقڵاوە","name_ku":"شەقڵاوە- بەردەم قایمقامیەتی قەزای شەقڵاوە","name_ar":"","location_name":"Shaqlawa 3","type":"atm","governorate":"هەولێر","city":"شەقڵاوە","region":"","latitude":36.407224,"longitude":44.314571,"maps_url":"https://maps.app.goo.gl/8zephzLXZ84feFLr8","banks":[{"bank_ku":"جیهان","bank_en":"Cihan","count":2,"sources":["krg","own"],"own_name":"Shaqlawa District - Near District Governorate"}]},{"name":"SHQLAVA SABIRAWA,Erbil","name_ku":"","name_ar":"","location_name":"","type":"atm","governorate":"","city":"","region":"ERBIL","latitude":36.4016505611592,"longitude":44.3462857509579,"maps_url":"https://www.google.com/maps?q=36.4016505611592,44.3462857509579","banks":[{"bank_ku":"بانکی گەشەپێدانی عێراقی","bank_en":"International Development Bank","count":1,"sources":["own"]}]},{"name":"Shaqlawa District - Dangara Neighborhood","name_ku":"شەقلاوە - گەڕەکی دەنگارە","name_ar":"شقلاوة - حي دنقارة","location_name":"","type":"atm","governorate":"","city":"","region":"Erbil","latitude":36.40067,"longitude":44.325652,"maps_url":"https://www.google.com/maps?q=36.40067,44.325652","banks":[{"bank_ku":"جیهان","bank_en":"Cihan","count":1,"sources":["own"]}]},{"name":"صراف أربيل - شقلاوة 2 (SHQLAVA 2 233)","name_ku":"","name_ar":"","location_name":"","type":"atm","governorate":"","city":"","region":"","latitude":36.400611,"longitude":44.325306,"maps_url":"https://www.google.com/maps?q=36.400611,44.325306","banks":[{"bank_ku":"بانکی ئیسلامی عێراقی","bank_en":"Iraqi Islamic Bank","count":1,"sources":["own"]}]},{"name":"شەقڵاوە- بەردەم بانکی سۆرک","name_ku":"شەقڵاوە- بەردەم بانکی سۆرک","name_ar":"","location_name":"Shaqlawa 2","type":"atm","governorate":"هەولێر","city":"شەقڵاوە","region":"","latitude":36.398267,"longitude":44.329082,"maps_url":"https://maps.app.goo.gl/mGB7sKvTeB916uxk6","banks":[{"bank_ku":"جیهان","bank_en":"Cihan","count":2,"sources":["krg","own"],"own_name":"Shaqlawa District - Near Shaqlawa Grand Mosque"},{"bank_ku":"ئار تی","bank_en":"RT","count":1,"sources":["krg","own"],"own_name":"Bank Sork"},{"bank_ku":"ئێن بی ئای","bank_en":"NBI","count":1,"sources":["krg"]}]},{"name":"پیرمام - شەقامی گولان - نزیک پارک","name_ku":"پیرمام - شەقامی گولان - نزیک پارک","name_ar":"","location_name":"Pirmam Gulan Road","type":"atm","governorate":"هەولێر","city":"Pirmam","region":"","latitude":36.392915,"longitude":44.187564,"maps_url":"https://maps.app.goo.gl/JSnuP7a6Y8yd6cuC6","banks":[{"bank_ku":"ئار تی","bank_en":"RT","count":1,"sources":["krg","own"],"own_name":"Pirmam Gulan Road"},{"bank_ku":"بانکی بەغداد","bank_en":"Bank of Baghdad","count":1,"sources":["krg"]}]},{"name":"صراف الموصل - مفوضية انتخابات نينوى 1","name_ku":"","name_ar":"","location_name":"","type":"atm","governorate":"","city":"","region":"","latitude":36.391869,"longitude":43.121494,"maps_url":"https://www.google.com/maps?q=36.391869,43.121494","banks":[{"bank_ku":"بانکی ئیسلامی عێراقی","bank_en":"Iraqi Islamic Bank","count":1,"sources":["own"]}]},{"name":"صراف الموصل - مفوضية انتخابات نينوى 2","name_ku":"","name_ar":"","location_name":"","type":"atm","governorate":"","city":"","region":"","latitude":36.391869,"longitude":43.121494,"maps_url":"https://www.google.com/maps?q=36.391869,43.121494","banks":[{"bank_ku":"بانکی ئیسلامی عێراقی","bank_en":"Iraqi Islamic Bank","count":1,"sources":["own"]}]},{"name":"Shaqlawa Sabirawa","name_ku":"شقلاوة - سابیراوة","name_ar":"شقلاوة - سابیراوة","location_name":"","type":"atm","governorate":"","city":"","region":"Erbil","latitude":36.39135839,"longitude":44.34364251,"maps_url":"https://www.google.com/maps?q=36.39135839,44.34364251","banks":[{"bank_ku":"ئار تی","bank_en":"RT","count":1,"sources":["own"]}]},{"name":"نزیک بنکەی ڤێتێرنەری شەقڵاوە","name_ku":"نزیک بنکەی ڤێتێرنەری شەقڵاوە","name_ar":"","location_name":"Shqlava Sabirawa","type":"atm","governorate":"هەولێر","city":"Shaqlawa","region":"","latitude":36.391356,"longitude":44.34363,"maps_url":"https://maps.app.goo.gl/w2ETc2KeAqKFe5M68","banks":[{"bank_ku":"بانکی ئیسلامی عێراقی","bank_en":"Iraqi Islamic Bank","count":1,"sources":["krg","own"],"own_name":"صراف أربيل - شقلاوة"},{"bank_ku":"بانکی گەشەپێدانی عێراقی","bank_en":"International Development Bank","count":1,"sources":["krg"]}]},{"name":"ATM-MOSEL-Mosul Branch W","name_ku":"","name_ar":"","location_name":"","type":"atm","governorate":"","city":"","region":"","latitude":36.3844446,"longitude":43.1803536,"maps_url":"https://www.google.com/maps?q=36.3844446,43.1803536","banks":[{"bank_ku":"بانکی عێراقی بۆ بازرگانی","bank_en":"TBI","count":1,"sources":["own"]}]},{"name":"MED TOWN MALL - MOUSL","name_ku":"","name_ar":"","location_name":"","type":"atm","governorate":"","city":"","region":"AL MOUSL","latitude":36.3837895781536,"longitude":43.1690356159397,"maps_url":"https://www.google.com/maps?q=36.3837895781536,43.1690356159397","banks":[{"bank_ku":"بانکی گەشەپێدانی عێراقی","bank_en":"International Development Bank","count":1,"sources":["own"]}]},{"name":"Al-Mosel Branch","name_ku":"","name_ar":"","location_name":"","type":"branch","governorate":"","city":"","region":"","latitude":36.381409231774654,"longitude":43.18173103533971,"maps_url":"https://www.google.com/maps?q=36.381409231774654,43.18173103533971","banks":[{"bank_ku":"ئێن بی ئای","bank_en":"NBI","count":1,"sources":["own"]}]},{"name":"دهۆک، شەقامی ئازادی، بەردەم نەخۆشخانەی لەدایکبوون","name_ku":"دهۆک، شەقامی ئازادی، بەردەم نەخۆشخانەی لەدایکبوون","name_ar":"","location_name":"Duhok l Maternity Hosp","type":"atm","governorate":"دهۆک","city":"دهۆک","region":"","latitude":36.381407,"longitude":44.20124,"maps_url":"https://www.google.com/maps?q=36.8631457302389,42.9880725711645","banks":[{"bank_ku":"جیهان","bank_en":"Cihan","count":3,"sources":["krg","own"],"own_name":"Salahaddin Resort (Permam) - Gulan Street - Near Korek Telecom"},{"bank_ku":"ئار تی","bank_en":"RT","count":1,"sources":["krg","own"],"own_name":"Pirmam"},{"bank_ku":"ئێن بی ئای","bank_en":"NBI","count":1,"sources":["krg"]}]},{"name":"پیرمام - شەقامی گوڵان - خوار کۆرەک تیلیکۆم","name_ku":"پیرمام - شەقامی گوڵان - خوار کۆرەک تیلیکۆم","name_ar":"","location_name":"Primam","type":"atm","governorate":"هەولێر","city":"پیرمام","region":"","latitude":36.381407,"longitude":44.20124,"maps_url":"https://maps.app.goo.gl/3JfQKRDLZ8JA3XLDA","banks":[{"bank_ku":"جیهان","bank_en":"Cihan","count":2,"sources":["krg"]},{"bank_ku":"ئار تی","bank_en":"RT","count":1,"sources":["krg"]},{"bank_ku":"ئێن بی ئای","bank_en":"NBI","count":1,"sources":["krg"]}]},{"name":"Al Mosul branch ATM","name_ku":"","name_ar":"","location_name":"","type":"atm","governorate":"","city":"","region":"","latitude":36.381305580036994,"longitude":43.179283515278165,"maps_url":"https://www.google.com/maps?q=36.381305580036994,43.179283515278165","banks":[{"bank_ku":"ئێن بی ئای","bank_en":"NBI","count":1,"sources":["own"]}]},{"name":"ShowMarket Pirmam","name_ku":"شۆومارکێت پیرمام","name_ar":"شو ماركيت بيرمام","location_name":"","type":"atm","governorate":"","city":"","region":"Erbil","latitude":36.38064,"longitude":44.20202,"maps_url":"https://www.google.com/maps?q=36.38064,44.20202","banks":[{"bank_ku":"ئار تی","bank_en":"RT","count":1,"sources":["own"]}]},{"name":"Salahaddin (Pirmam) - Sarban Neighborhood","name_ku":"مەسیف پیرمام - گەڕەکی سەربەن","name_ar":"مصيف صلاح الدين (بيرمام) - حي سربن","location_name":"","type":"atm","governorate":"","city":"","region":"Erbil","latitude":36.377235,"longitude":44.210895,"maps_url":"https://www.google.com/maps?q=36.377235,44.210895","banks":[{"bank_ku":"جیهان","bank_en":"Cihan","count":1,"sources":["own"]}]},{"name":"صراف أربيل - ساربان (SARBAN 237)","name_ku":"","name_ar":"","location_name":"","type":"atm","governorate":"","city":"","region":"","latitude":36.3768,"longitude":44.21084,"maps_url":"https://www.google.com/maps?q=36.3768,44.21084","banks":[{"bank_ku":"بانکی ئیسلامی عێراقی","bank_en":"Iraqi Islamic Bank","count":1,"sources":["own"]}]},{"name":"نزیک بەڕێوەبەرایەتی ناحیەی سەلاحەدین","name_ku":"نزیک بەڕێوەبەرایەتی ناحیەی سەلاحەدین","name_ar":"","location_name":"Pirmam Electricity","type":"atm","governorate":"هەولێر","city":"Pirmam","region":"","latitude":36.375609,"longitude":44.201611,"maps_url":"https://maps.app.goo.gl/nCGSJwh62u2F94AY6","banks":[{"bank_ku":"ئێن بی ئای","bank_en":"NBI","count":1,"sources":["krg"]},{"bank_ku":"بانکی ئیسلامی عێراقی","bank_en":"Iraqi Islamic Bank","count":1,"sources":["krg"]},{"bank_ku":"بانکی گەشەپێدانی عێراقی","bank_en":"International Development Bank","count":1,"sources":["krg","own"],"own_name":"Pirmam Electricity,SALAHDIN,ERBIL"}]},{"name":"GLODEN MALL - MOUSL","name_ku":"","name_ar":"","location_name":"","type":"atm","governorate":"","city":"","region":"AL MOUSL","latitude":36.375357133294,"longitude":43.1792109294351,"maps_url":"https://www.google.com/maps?q=36.375357133294,43.1792109294351","banks":[{"bank_ku":"بانکی گەشەپێدانی عێراقی","bank_en":"International Development Bank","count":1,"sources":["own"]}]},{"name":"Mosul Branch - Left Side - Al-Zohour District - Near Sayidati Al-Jameela Roundabout","name_ku":"لقی موسل- گەڕەکی الزهور - نزیک فلکەی سيدتي الجميلة - گۆڵدن مۆڵ","name_ar":"فرع الموصل - ساحل الايسر - حي الزهور - قرب دورة سيدة الجميلة","location_name":"","type":"branch","governorate":"","city":"","region":"Mosul","latitude":36.374984,"longitude":43.179138,"maps_url":"https://www.google.com/maps?q=36.374984,43.179138","banks":[{"bank_ku":"جیهان","bank_en":"Cihan","count":1,"sources":["own"]}]},{"name":"صراف الموصل - كولدن مول","name_ku":"","name_ar":"","location_name":"","type":"atm","governorate":"","city":"","region":"","latitude":36.37491,"longitude":43.17913,"maps_url":"https://www.google.com/maps?q=36.37491,43.17913","banks":[{"bank_ku":"بانکی ئیسلامی عێراقی","bank_en":"Iraqi Islamic Bank","count":1,"sources":["own"]}]},{"name":"صراف أربيل - بيرمم","name_ku":"","name_ar":"","location_name":"","type":"atm","governorate":"","city":"","region":"","latitude":36.37387,"longitude":44.20166,"maps_url":"https://www.google.com/maps?q=36.37387,44.20166","banks":[{"bank_ku":"بانکی ئیسلامی عێراقی","bank_en":"Iraqi Islamic Bank","count":1,"sources":["own"]}]},{"name":"فرع الموصل","name_ku":"","name_ar":"","location_name":"","type":"branch","governorate":"","city":"","region":"","latitude":36.36874234645529,"longitude":43.17443139998305,"maps_url":"https://www.google.com/maps?q=36.36874234645529,43.17443139998305","banks":[{"bank_ku":"بانکی ئیسلامی عێراقی","bank_en":"Iraqi Islamic Bank","count":1,"sources":["own"]}]},{"name":"ALMOUSL BRANCH -HAY AL-NOOR OUT DOOR","name_ku":"","name_ar":"","location_name":"","type":"atm","governorate":"","city":"","region":"AL MOUSL","latitude":36.368346,"longitude":43.185574,"maps_url":"https://www.google.com/maps?q=36.368346,43.185574","banks":[{"bank_ku":"بانکی گەشەپێدانی عێراقی","bank_en":"International Development Bank","count":1,"sources":["own"]}]},{"name":"Mosul branch","name_ku":"","name_ar":"","location_name":"","type":"branch","governorate":"","city":"","region":"Ninawa","latitude":36.368346,"longitude":43.185574,"maps_url":"https://www.google.com/maps?q=36.368346,43.185574","banks":[{"bank_ku":"بانکی گەشەپێدانی عێراقی","bank_en":"International Development Bank","count":1,"sources":["own"]}]},{"name":"صراف الموصل - جسر المثنى 1","name_ku":"","name_ar":"","location_name":"","type":"atm","governorate":"","city":"","region":"","latitude":36.36792,"longitude":43.174438,"maps_url":"https://www.google.com/maps?q=36.367920,43.174438","banks":[{"bank_ku":"بانکی ئیسلامی عێراقی","bank_en":"Iraqi Islamic Bank","count":1,"sources":["own"]}]},{"name":"صراف الموصل - جسر المثنى 2","name_ku":"","name_ar":"","location_name":"","type":"atm","governorate":"","city":"","region":"","latitude":36.36792,"longitude":43.174438,"maps_url":"https://www.google.com/maps?q=36.367920,43.174438","banks":[{"bank_ku":"بانکی ئیسلامی عێراقی","bank_en":"Iraqi Islamic Bank","count":1,"sources":["own"]}]},{"name":"صراف الموصل - حي النور طاهر زيناوة 1","name_ku":"","name_ar":"","location_name":"","type":"atm","governorate":"","city":"","region":"","latitude":36.3675,"longitude":43.187626,"maps_url":"https://www.google.com/maps?q=36.367500,43.187626","banks":[{"bank_ku":"بانکی ئیسلامی عێراقی","bank_en":"Iraqi Islamic Bank","count":1,"sources":["own"]}]},{"name":"صراف الموصل - حي النور طاهر زيناوة 2","name_ku":"","name_ar":"","location_name":"","type":"atm","governorate":"","city":"","region":"","latitude":36.3675,"longitude":43.187626,"maps_url":"https://www.google.com/maps?q=36.367500,43.187626","banks":[{"bank_ku":"بانکی ئیسلامی عێراقی","bank_en":"Iraqi Islamic Bank","count":1,"sources":["own"]}]},{"name":"CBI Mosul","name_ku":"","name_ar":"","location_name":"","type":"atm","governorate":"","city":"","region":"","latitude":36.367452,"longitude":43.187684,"maps_url":"https://www.google.com/maps?q=36.367452,43.187684","banks":[{"bank_ku":"بانکی عێراقی بۆ بازرگانی","bank_en":"TBI","count":1,"sources":["own"]}]},{"name":"ATM-MOUSEL -Today Mall Mosul","name_ku":"","name_ar":"","location_name":"","type":"atm","governorate":"","city":"","region":"","latitude":36.361993,"longitude":43.0981707,"maps_url":"https://www.google.com/maps?q=36.361993,43.0981707","banks":[{"bank_ku":"بانکی عێراقی بۆ بازرگانی","bank_en":"TBI","count":1,"sources":["own"]}]},{"name":"Today Mall","name_ku":"","name_ar":"","location_name":"","type":"atm","governorate":"","city":"","region":"","latitude":36.361913292168964,"longitude":43.09544971079052,"maps_url":"https://www.google.com/maps?q=36.361913292168964,43.09544971079052","banks":[{"bank_ku":"ئێن بی ئای","bank_en":"NBI","count":1,"sources":["own"]}]},{"name":"صراف الموصل - مديرية اتصالات نينوى","name_ku":"","name_ar":"","location_name":"","type":"atm","governorate":"","city":"","region":"","latitude":36.357365,"longitude":43.197868,"maps_url":"https://www.google.com/maps?q=36.357365,43.197868","banks":[{"bank_ku":"بانکی ئیسلامی عێراقی","bank_en":"Iraqi Islamic Bank","count":1,"sources":["own"]}]},{"name":"Al-Mosul / Rabeaa Branch","name_ku":"","name_ar":"","location_name":"","type":"atm","governorate":"","city":"","region":"","latitude":36.3509817,"longitude":43.1734485,"maps_url":"https://www.google.com/maps?q=36.3509817,43.1734485","banks":[{"bank_ku":"بانکی بەغداد","bank_en":"Bank of Baghdad","count":2,"sources":["own"]}]},{"name":"Al-Mousal \\ Rabeaa Branch","name_ku":"","name_ar":"","location_name":"","type":"branch","governorate":"","city":"","region":"","latitude":36.350161899999996,"longitude":43.1680099,"maps_url":"https://www.google.com/maps?q=36.350161899999996,43.1680099","banks":[{"bank_ku":"بانکی بەغداد","bank_en":"Bank of Baghdad","count":1,"sources":["own"]}]},{"name":"COURT OF APPEAL AL MOUSL","name_ku":"","name_ar":"","location_name":"","type":"atm","governorate":"","city":"","region":"MOUSL","latitude":36.34299078138106,"longitude":43.15739466245651,"maps_url":"https://www.google.com/maps?q=36.34299078138106,43.15739466245651","banks":[{"bank_ku":"بانکی گەشەپێدانی عێراقی","bank_en":"International Development Bank","count":1,"sources":["own"]}]},{"name":"Al-Dawwasa - Al-Jumhuriyah Street - Near Directorate of Statistics","name_ku":"گەڕەکی دەواسە - شەقامی الجمهورىة - نزیک بەڕێوبەرایەتی ئامار","name_ar":"منطقة الدواسة - شارع الجمهورىة - قرب مديرية الاحصاء","location_name":"","type":"atm","governorate":"","city":"","region":"Mosul","latitude":36.337532,"longitude":43.136816,"maps_url":"https://www.google.com/maps?q=36.337532,43.136816","banks":[{"bank_ku":"جیهان","bank_en":"Cihan","count":1,"sources":["own"]}]},{"name":"صراف الموصل - محكمة الموصل","name_ku":"","name_ar":"","location_name":"","type":"atm","governorate":"","city":"","region":"","latitude":36.33642,"longitude":43.14159,"maps_url":"https://www.google.com/maps?q=36.33642,43.14159","banks":[{"bank_ku":"بانکی ئیسلامی عێراقی","bank_en":"Iraqi Islamic Bank","count":1,"sources":["own"]}]},{"name":"KRG My Account ATM - 60-meter Street","name_ku":"","name_ar":"","location_name":"","type":"atm","governorate":"","city":"","region":"","latitude":36.31851797238827,"longitude":43.743399076419344,"maps_url":"https://www.google.com/maps?q=36.31851797238827,43.743399076419344","banks":[{"bank_ku":"ئێن بی ئای","bank_en":"NBI","count":1,"sources":["own"]}]},{"name":"KAR Refinery 2","name_ku":"","name_ar":"","location_name":"","type":"atm","governorate":"","city":"","region":"","latitude":36.31831229460121,"longitude":43.74813671078846,"maps_url":"https://www.google.com/maps?q=36.31831229460121,43.74813671078846","banks":[{"bank_ku":"ئێن بی ئای","bank_en":"NBI","count":1,"sources":["own"]}]},{"name":"هەولێر، بەحرکە، خوار مزگەوتی ڕەشید گەردی","name_ku":"هەولێر، بەحرکە، خوار مزگەوتی ڕەشید گەردی","name_ar":"","location_name":"Bahrka HUB","type":"atm","governorate":"هەولێر","city":"بەحرکە","region":"","latitude":36.315413,"longitude":44.032767,"maps_url":"https://maps.app.goo.gl/Gv1anJGbMqjoN2BD9","banks":[{"bank_ku":"جیهان","bank_en":"Cihan","count":2,"sources":["krg","own"],"own_name":"Near Baharka Municipality"},{"bank_ku":"ئار تی","bank_en":"RT","count":1,"sources":["krg","own"],"own_name":"Bahrka Municipality"}]},{"name":"Erbil, International School of Choueifat (Sabis) - Khanzad (ATM subject to School operating hours)","name_ku":"","name_ar":"","location_name":"","type":"atm","governorate":"","city":"","region":"","latitude":36.3143632259191,"longitude":44.1492841014506,"maps_url":"https://www.google.com/maps?q=36.3143632259191,44.1492841014506","banks":[{"bank_ku":"بیبی ئەی سی","bank_en":"BBAC","count":1,"sources":["own"]}]},{"name":"KAR Refinery 1","name_ku":"","name_ar":"","location_name":"","type":"atm","governorate":"","city":"","region":"","latitude":36.3127272949126,"longitude":43.745925710788214,"maps_url":"https://www.google.com/maps?q=36.3127272949126,43.745925710788214","banks":[{"bank_ku":"ئێن بی ئای","bank_en":"NBI","count":1,"sources":["own"]}]},{"name":"Coca Cola Erbil","name_ku":"","name_ar":"","location_name":"","type":"atm","governorate":"","city":"","region":"","latitude":36.30820429516468,"longitude":43.72113971078806,"maps_url":"https://www.google.com/maps?q=36.30820429516468,43.72113971078806","banks":[{"bank_ku":"ئێن بی ئای","bank_en":"NBI","count":1,"sources":["own"]}]},{"name":"بەحرکە - نزیک ئاسایشی بەحرکە","name_ku":"بەحرکە - نزیک ئاسایشی بەحرکە","name_ar":"","location_name":"Bahirka 1","type":"atm","governorate":"هەولێر","city":"Bahrka","region":"","latitude":36.30653,"longitude":44.02556,"maps_url":"https://www.google.com/maps?q=36.30653,44.02556","banks":[{"bank_ku":"ئێن بی ئای","bank_en":"NBI","count":1,"sources":["krg"]},{"bank_ku":"بانکی ئیسلامی عێراقی","bank_en":"Iraqi Islamic Bank","count":1,"sources":["krg","own"],"own_name":"صراف أربيل - بحركة"}]},{"name":"Ganjan City","name_ku":"گوندی گەنجان","name_ar":"كنجان ستي","location_name":"","type":"atm","governorate":"","city":"","region":"Erbil","latitude":36.29268421,"longitude":44.03355556,"maps_url":"https://www.google.com/maps?q=36.29268421,44.03355556","banks":[{"bank_ku":"ئار تی","bank_en":"RT","count":1,"sources":["own"]}]},{"name":"Erbil - Ganjan City - Carrefour","name_ku":"","name_ar":"","location_name":"","type":"atm","governorate":"","city":"","region":"","latitude":36.2865139,"longitude":44.0494972,"maps_url":"https://www.google.com/maps?q=36.2865139,44.0494972","banks":[{"bank_ku":"بانکی بەغداد","bank_en":"Bank of Baghdad","count":1,"sources":["own"]}]},{"name":"ATM - Finland Bazar","name_ku":"","name_ar":"","location_name":"","type":"atm","governorate":"","city":"","region":"","latitude":36.27198813891552,"longitude":44.08545505968098,"maps_url":"https://www.google.com/maps?q=36.27198813891552,44.08545505968098","banks":[{"bank_ku":"بانکی اربیل بۆ وەبەرهێنان و پێدان","bank_en":"Erbil Bank for Investments and Finance","count":1,"sources":["own"]}]},{"name":"Khabat Youth Center","name_ku":"ناوەندی لاوانی خەبات","name_ar":"مركز خبات للشباب","location_name":"","type":"atm","governorate":"","city":"","region":"Erbil","latitude":36.2693277,"longitude":43.66746719,"maps_url":"https://www.google.com/maps?q=36.2693277,43.66746719","banks":[{"bank_ku":"ئار تی","bank_en":"RT","count":1,"sources":["own"]}]},{"name":"بەرامبەر شارەوانی خەبات","name_ku":"بەرامبەر شارەوانی خەبات","name_ar":"","location_name":"Khabat Youth Center","type":"atm","governorate":"هەولێر","city":"Khabat","region":"","latitude":36.269181,"longitude":43.66743,"maps_url":"https://maps.app.goo.gl/nxn7n1em6dL7LKCL6","banks":[{"bank_ku":"بانکی بەغداد","bank_en":"Bank of Baghdad","count":1,"sources":["krg"]},{"bank_ku":"بانکی ئیسلامی عێراقی","bank_en":"Iraqi Islamic Bank","count":1,"sources":["krg","own"],"own_name":"صراف أربيل - خابات"}]},{"name":"خەبات - بەردەم قایمقامیەتی خەبات","name_ku":"خەبات - بەردەم قایمقامیەتی خەبات","name_ar":"","location_name":"Khabat","type":"atm","governorate":"هەولێر","city":"خەبات","region":"","latitude":36.268443,"longitude":43.662053,"maps_url":"https://maps.app.goo.gl/4gcxSHMto613vhiL6","banks":[{"bank_ku":"جیهان","bank_en":"Cihan","count":2,"sources":["krg","own"],"own_name":"Khabat - Opposite Khabat District Governorate"},{"bank_ku":"ئار تی","bank_en":"RT","count":1,"sources":["krg","own"],"own_name":"Gulan bank"}]},{"name":"Majidi Market 3","name_ku":"ماجدي ماركيت 3","name_ar":"ماجدي ماركيت 3","location_name":"","type":"atm","governorate":"","city":"","region":"Erbil","latitude":36.26209471,"longitude":44.08973929,"maps_url":"https://www.google.com/maps?q=36.26209471,44.08973929","banks":[{"bank_ku":"ئار تی","bank_en":"RT","count":1,"sources":["own"]}]},{"name":"KurdNeft","name_ku":"كوردنيفت","name_ar":"كوردنيفت","location_name":"","type":"atm","governorate":"","city":"","region":"Erbil","latitude":36.26195003,"longitude":44.01476092,"maps_url":"https://www.google.com/maps?q=36.26195003,44.01476092","banks":[{"bank_ku":"ئار تی","bank_en":"RT","count":1,"sources":["own"]}]},{"name":"ڕانیە - شەقامی پێنجی ئازار نزیک نەخۆشخانەی منداڵبوونی ڕانیە","name_ku":"ڕانیە - شەقامی پێنجی ئازار نزیک نەخۆشخانەی منداڵبوونی ڕانیە","name_ar":"","location_name":"Ranya Maternity Hospital","type":"atm","governorate":"سلێمانی","city":"Ranya","region":"","latitude":36.261807,"longitude":44.867657,"maps_url":"https://maps.app.goo.gl/UbsaVCMzJo5wnjuQ6","banks":[{"bank_ku":"ئار تی","bank_en":"RT","count":1,"sources":["krg","own"],"own_name":"ranya maternity"},{"bank_ku":"بانکی بەغداد","bank_en":"Bank of Baghdad","count":1,"sources":["krg","own"],"own_name":"Al Sulaymaniyah - Peshkawtn School"}]},{"name":"Erbil, Lebanese Village Compound - Gate 2 (ATM2 24/7)","name_ku":"","name_ar":"","location_name":"","type":"atm","governorate":"","city":"","region":"","latitude":36.2594822065556,"longitude":44.013843335976,"maps_url":"https://www.google.com/maps?q=36.2594822065556,44.0138433359760","banks":[{"bank_ku":"بیبی ئەی سی","bank_en":"BBAC","count":1,"sources":["own"]}]},{"name":"ڕانیە - نزیک یاریگای کێوەڕەش","name_ku":"ڕانیە - نزیک یاریگای کێوەڕەش","name_ar":"","location_name":"Ranya Kewarash School","type":"atm","governorate":"سلێمانی","city":"Ranya","region":"","latitude":36.257541,"longitude":44.894333,"maps_url":"https://maps.app.goo.gl/4FGW5KhKDCs9RpGu8","banks":[{"bank_ku":"ئێن بی ئای","bank_en":"NBI","count":1,"sources":["krg"]},{"bank_ku":"بانکی ئیسلامی عێراقی","bank_en":"Iraqi Islamic Bank","count":1,"sources":["krg"]}]},{"name":"Erbil, Lebanese Village Compound - Gate 1 (ATM1 24/7)","name_ku":"","name_ar":"","location_name":"","type":"atm","governorate":"","city":"","region":"","latitude":36.2574916611173,"longitude":44.0116062801714,"maps_url":"https://www.google.com/maps?q=36.2574916611173,44.0116062801714","banks":[{"bank_ku":"بیبی ئەی سی","bank_en":"BBAC","count":1,"sources":["own"]}]},{"name":"Erbil, Grand Majidi Mall (ATM subject to Mall operating hours)","name_ku":"","name_ar":"","location_name":"","type":"atm","governorate":"","city":"","region":"","latitude":36.253891130881,"longitude":44.0820629844961,"maps_url":"https://www.google.com/maps?q=36.253891130881,44.0820629844961","banks":[{"bank_ku":"بیبی ئەی سی","bank_en":"BBAC","count":1,"sources":["own"]}]},{"name":"Grand Majidi Mall","name_ku":"گراند ماجدی مۆڵ","name_ar":"كراند ماجدي مول","location_name":"","type":"atm","governorate":"","city":"","region":"Erbil","latitude":36.253452,"longitude":44.081668,"maps_url":"https://www.google.com/maps?q=36.253452,44.081668","banks":[{"bank_ku":"جیهان","bank_en":"Cihan","count":1,"sources":["own"]}]},{"name":"ڕانیە، شەقامی پێنجی ئازار، بەرامبەر ناوەندی وەرزش و لاوانی ڕانیە","name_ku":"ڕانیە، شەقامی پێنجی ئازار، بەرامبەر ناوەندی وەرزش و لاوانی ڕانیە","name_ar":"","location_name":"Ranya","type":"atm","governorate":"سلێمانی","city":"رانیە","region":"","latitude":36.2524,"longitude":44.87178,"maps_url":"https://www.google.com/maps?q=36.252399565096,44.8717796558226","banks":[{"bank_ku":"جیهان","bank_en":"Cihan","count":3,"sources":["krg","own"],"own_name":"Ranya District - Near Ranjderan Primary School"},{"bank_ku":"ئار تی","bank_en":"RT","count":1,"sources":["krg","own"],"own_name":"culture and art /rania"},{"bank_ku":"ئێن بی ئای","bank_en":"NBI","count":1,"sources":["krg"]}]},{"name":"Shawes","name_ku":"شاوێس","name_ar":"شاويس","location_name":"","type":"atm","governorate":"","city":"","region":"Erbil","latitude":36.24970857,"longitude":44.08530781,"maps_url":"https://www.google.com/maps?q=36.24970857,44.08530781","banks":[{"bank_ku":"ئار تی","bank_en":"RT","count":1,"sources":["own"]}]},{"name":"بەرامبەر شارەوانی شاوێس","name_ku":"بەرامبەر شارەوانی شاوێس","name_ar":"","location_name":"Shaways","type":"atm","governorate":"هەولێر","city":"هەولێر","region":"","latitude":36.249657,"longitude":44.085324,"maps_url":"https://maps.app.goo.gl/cAnR9iMfVsSeKMSU9","banks":[{"bank_ku":"بانکی بەغداد","bank_en":"Bank of Baghdad","count":1,"sources":["krg"]},{"bank_ku":"بانکی ئیسلامی عێراقی","bank_en":"Iraqi Islamic Bank","count":1,"sources":["krg","own"],"own_name":"صراف أربيل - شاويس"}]},{"name":"Aram Village","name_ku":"گوندی ئارام","name_ar":"ئارام ستى","location_name":"","type":"atm","governorate":"","city":"","region":"Erbil","latitude":36.24497083,"longitude":44.04141402,"maps_url":"https://www.google.com/maps?q=36.24497083,44.04141402","banks":[{"bank_ku":"ئار تی","bank_en":"RT","count":1,"sources":["own"]}]},{"name":"باخچەی ڕاپەڕین","name_ku":"باخچەی ڕاپەڕین","name_ar":"","location_name":"Raparin park","type":"atm","governorate":"سلێمانی","city":"ڕانیە","region":"","latitude":36.244612,"longitude":44.880341,"maps_url":"https://maps.app.goo.gl/xHVSZmukf4qR1wnJ7","banks":[{"bank_ku":"ئار تی","bank_en":"RT","count":1,"sources":["krg","own"],"own_name":"Ranya"},{"bank_ku":"ئێن بی ئای","bank_en":"NBI","count":2,"sources":["krg"]}]},{"name":"ڕانیە، شەقامی رانیە-چوارقورنە، نزیک بەرێوەبەرایەتی گشتی شارەوانیەکانی ڕاپەڕین","name_ku":"ڕانیە، شەقامی رانیە-چوارقورنە، نزیک بەرێوەبەرایەتی گشتی شارەوانیەکانی ڕاپەڕین","name_ar":"","location_name":"Ranya","type":"atm","governorate":"سلێمانی","city":"رانیە","region":"","latitude":36.24325,"longitude":44.879028,"maps_url":"https://www.google.com/maps?q=36.2432502918218,44.8790277999999","banks":[{"bank_ku":"جیهان","bank_en":"Cihan","count":2,"sources":["krg","own"],"own_name":"Ranya District - Opposite Darwaza Park"},{"bank_ku":"ئار تی","bank_en":"RT","count":1,"sources":["krg","own"],"own_name":"municipalitie rapareen /rania"}]},{"name":"Carrefour En Kawa mall","name_ku":"","name_ar":"","location_name":"","type":"atm","governorate":"","city":"","region":"","latitude":36.2415725,"longitude":43.9895408,"maps_url":"https://www.google.com/maps?q=36.2415725,43.9895408","banks":[{"bank_ku":"بانکی بەغداد","bank_en":"Bank of Baghdad","count":1,"sources":["own"]}]},{"name":"Ankawa District","name_ku":"ناحیەی عینکاوە","name_ar":"ناحية عينكاوه","location_name":"","type":"atm","governorate":"","city":"","region":"Erbil","latitude":36.24028141,"longitude":43.98727707,"maps_url":"https://www.google.com/maps?q=36.24028141,43.98727707","banks":[{"bank_ku":"ئار تی","bank_en":"RT","count":1,"sources":["own"]}]},{"name":"Erbil, Fiori Hotel (ATM 24/7)","name_ku":"","name_ar":"","location_name":"","type":"atm","governorate":"","city":"","region":"","latitude":36.2374681015937,"longitude":43.9905980836811,"maps_url":"https://www.google.com/maps?q=36.2374681015937,43.9905980836811","banks":[{"bank_ku":"بیبی ئەی سی","bank_en":"BBAC","count":1,"sources":["own"]}]},{"name":"Erbil Airport Office","name_ku":"نووسینگەی فڕۆکەخانەی هەولێر","name_ar":"مكتب مطار اربيل","location_name":"","type":"branch","governorate":"","city":"","region":"Erbil","latitude":36.237,"longitude":43.963,"maps_url":"https://www.google.com/maps?q=36.237,43.963","banks":[{"bank_ku":"ئار تی","bank_en":"RT","count":1,"sources":["own"]}]},{"name":"Erbil, Ainkawa (ATM 24/7)","name_ku":"","name_ar":"","location_name":"","type":"atm","governorate":"","city":"","region":"","latitude":36.2366222380545,"longitude":43.9963873903941,"maps_url":"https://www.google.com/maps?q=36.2366222380545,43.9963873903941","banks":[{"bank_ku":"بیبی ئەی سی","bank_en":"BBAC","count":1,"sources":["own"]}]},{"name":"بەڕێوەبەرایەتی گشتی تەندروستی ڕاپەڕین","name_ku":"بەڕێوەبەرایەتی گشتی تەندروستی ڕاپەڕین","name_ar":"","location_name":"General Directorate of Health- Raparin","type":"atm","governorate":"سلێمانی","city":"ڕانیە","region":"","latitude":36.235495,"longitude":44.868759,"maps_url":"https://maps.app.goo.gl/hzXQiNR18pXYT3icA","banks":[{"bank_ku":"ئار تی","bank_en":"RT","count":1,"sources":["krg","own"],"own_name":"Kewarash"},{"bank_ku":"ئێن بی ئای","bank_en":"NBI","count":2,"sources":["krg"]}]},{"name":"عەین کاوە - دواناوەندی عەین کاوەی نموونەیی","name_ku":"عەین کاوە - دواناوەندی عەین کاوەی نموونەیی","name_ar":"","location_name":"Ainkawa 1","type":"atm","governorate":"هەولێر","city":"Erbil","region":"","latitude":36.23536,"longitude":43.99093,"maps_url":"https://www.google.com/maps?q=36.23536,43.99093","banks":[{"bank_ku":"ئێن بی ئای","bank_en":"NBI","count":1,"sources":["krg"]},{"bank_ku":"بانکی ئیسلامی عێراقی","bank_en":"Iraqi Islamic Bank","count":1,"sources":["krg"]}]},{"name":"Erbil International Airport","name_ku":"فڕۆکەخانەی ھەولێر","name_ar":"مطار أربيل","location_name":"","type":"atm","governorate":"","city":"","region":"Erbil","latitude":36.23357,"longitude":43.95539,"maps_url":"https://www.google.com/maps?q=36.23357,43.95539","banks":[{"bank_ku":"ئار تی","bank_en":"RT","count":1,"sources":["own"]}]},{"name":"ATM-ERBIL-EIA - ARR. R","name_ku":"","name_ar":"","location_name":"","type":"atm","governorate":"","city":"","region":"","latitude":36.2330409,"longitude":43.9510044,"maps_url":"https://www.google.com/maps?q=36.2330409,43.9510044","banks":[{"bank_ku":"بانکی عێراقی بۆ بازرگانی","bank_en":"TBI","count":1,"sources":["own"]}]},{"name":"Al Motanazah St","name_ku":"شارع المنتزه","name_ar":"شارع المنتزه","location_name":"","type":"atm","governorate":"","city":"","region":"Erbil","latitude":36.22971719,"longitude":43.9919226,"maps_url":"https://www.google.com/maps?q=36.22971719,43.9919226","banks":[{"bank_ku":"ئار تی","bank_en":"RT","count":1,"sources":["own"]}]},